Parada;nodo Inter Urbano;TIPO MOBILIARIO (ACTUAL);DISTRITO;DIRECCIÓN;VIAL;Nº;emplazamiento;sentido;Direccion_completa;Coord ED50_X;Coord ED50_Y;CONT PILAS;nº_linea;X ETRS89 U.T.M.;Y ETRS89 U.T.M.;Longitud;Latitud
1232;;MARQUESINA MOD XXI 5-M STD;CHAMBERI;GENOVA;CALLE;27;JTO BANCO B.N.P.;C/ SAGASTA;GENOVA, CALLE Nº27 JTO BANCO B.N.P. C/ SAGASTA;441410,2;4475464,5;SI;21/N23/N25/N26/;441300,79;4475257,02;-3.6919843;40.4258771
5691;;MARQUESINA MOD XXI 4-M STD;SAN BLAS;CASTILLO DE UCLES;CALLE;49;-;HNOS GARCIA NOBLEJAS;CASTILLO DE UCLES, CALLE Nº49  HNOS GARCIA NOBLEJAS;447268,1563;4476152;SI;109/;447158,72;4475944,44;-3.6229884;40.4324625
1229;;MARQUESINA MOD XXI 5-M STD;CENTRO;GENOVA;CALLE;6;JTO CAJA POSTAL;PZA DE COLON;GENOVA, CALLE Nº6 JTO CAJA POSTAL PZA DE COLON;441146,7;4475616,1;SI;21/37/N23/;441037,29;4475408,62;-3.6951044;40.4272242
1384;;MARQUESINA MOD XXI 4-M REDUCIDA ;CHAMBERI;BRAVO MURILLO;CALLE;29;ESQ C/ DONOSO CORTES;GTA QUEVEDO;BRAVO MURILLO, CALLE Nº29 ESQ C/ DONOSO CORTES GTA QUEVEDO;440367,1;4476633,3;SI;37/149/;440257,7;4476425,83;-3.7043899;40.436332
1325;;MARQUESINA MOD XXI 4-M STD;CHAMBERI;ALBERTO AGUILERA;CALLE;26;-;C/ PRINCESA;ALBERTO AGUILERA, CALLE Nº26 - C/ PRINCESA;439878,1;4475948,9;SI;21/M2/;439768,7;4475741,44;-3.7100901;40.4301315
736;;MARQUESINA MOD XXI 5-M STD;CENTRO;PRINCESA;CALLE;0;ANT  C/ ALBERTO AGUILERA;PZA. MONCLOA;PRINCESA, CALLE Nº0 ANTES  C/ ALBERTO AGUILERA PZA. MONCLOA;439390,7;4475960,6;SI;1/44/133/C1/N21/CT1/;439281,3;4475753,14;-3.715837;40.4302014
1228;;MARQUESINA MOD XXI 4-M STD;CHAMBERI;SAGASTA;CALLE;19;ANT DE C/ FCO. DE ROJAS;GTA DE BILBAO;SAGASTA, CALLE Nº19 ANTES DE C/ FCO. DE ROJAS GTA DE BILBAO;440818,3;4475755,3;SI;3/21/;440708,89;4475547,83;-3.6989886;40.4284549
2967;;MARQUESINA MOD XXI 4-M STD;CENTRO;CARRANZA;CALLE;7;-;SAGASTA;CARRANZA, CALLE Nº3 - SAGASTA;440474,6;4475821,4;SI;21/147/;440365,2;4475613,93;-3.7030463;40.4290258
1224;;MARQUESINA MOD XXI 5-M STD;CHAMBERI;ALBERTO AGUILERA;CALLE;10;FTE Nº 3;C/ PRINCESA;ALBERTO AGUILERA, CALLE Nº10 FTE Nº 3 C/ PRINCESA;440104,5;4475917,2;SI;21/;439995,1;4475709,73;-3.7074182;40.4298622
1434;;MARQUESINA MOD XXI 5-M STD;RETIRO;DR. ESQUERDO;CALLE;173;ESQ PZA CONDE CASAL;PZA MANUEL BECERRA;DR. ESQUERDO, CALLE Nº173 ESQ PZA CONDE CASAL PZA MANUEL BECERRA;443260,937;4473374,842;SI;32/56/143/156/;443151,51;4473167,34;-3.6699815;40.4071807
1433;;MARQUESINA MOD XXI 5-M STD;RETIRO;DR. ESQUERDO;CALLE;126;FTE AL Nº 171;PZA.CONDE CASAL;DR. ESQUERDO, CALLE Nº126 FRENTE AL Nº 171 PZA.CONDE CASAL;443230,9;4473397,5;SI;56/143/156/;443121,47;4473190;-3.6703375;40.4073827
1432;;MARQUESINA MOD XXI 4-M STD;RETIRO;DR. ESQUERDO;CALLE;151;FTE Nº 100;MANUEL BECERRA;DR. ESQUERDO, CALLE Nº151 FTE Nº 100 MANUEL BECERRA;443288,8;4473764,2;SI;56/143/156/;443179,37;4473556,7;-3.6696879;40.4106901
150;;MARQUESINA MOD XXI 5-M STD;SALAMANCA;DR. ESQUERDO;CALLE;0;DESP  C/ DUQUE DE SESTO;PZA.CONDE CASAL;DR. ESQUERDO, CALLE Nº0 DESP  C/ DUQUE DE SESTO PZA.CONDE CASAL;443345,5;4475011,3;SI;2/30/56/71/143/156/E4/;443236,08;4474803,8;-3.6691308;40.4219286
786;;MARQUESINA MOD XXI 4-M STD;SALAMANCA;FRANCISCO SILVELA;CALLE;53;-;PZA DE ROMA;FRANCISCO SILVELA, CALLE Nº53 - PZA DE ROMA;442955,4;4476326,7;SI;12/C1/;442845,98;4476119,2;-3.6738473;40.4337516
2437;;MARQUESINA MOD XXI 5-M STD;CARABANCHEL;SETUBAL;PZA;0;FTE Nº 16;AV OPORTO;SETUBAL, PZA Nº0 FTE Nº 16  AV OPORTO;438643,1;4470802,1;SI;47/108/;438533,69;4470594,63;-3.7241519;40.3836764
662;7593;MARQUESINA MOD XXI 5-M STD;CARABANCHEL;POBLADOS (DE LOS);AV;0;FTE PARQUE EUGENIA DE MONTIJO;N-401;POBLADOS (DE LOS), AVD Nº0 FTE PARQUE EUGENIA DE MONTIJO N-401;435940,3;4470233,5;SI;121/131/139/482/485/491/492/493/N802/N803/N804/;435830,9;4470026,06;-3.7559344;40.3783507
2698;;MARQUESINA MOD XXI 4-M STD;CHAMARTIN;JOAQUIN COSTA;CALLE;28;ESQ C/VELAZQUEZ;FRANCISCO SILVELA;JOAQUIN COSTA, CALLE Nº28 ESQ C/VELAZQUEZ FRANCISCO SILVELA;442178,4;4477316,1;SI;C1/;442068,99;4477108,61;-3.6830976;40.442611
419;;MARQUESINA MOD XXI 4-M STD;CHAMARTIN;JOAQUIN COSTA;CALLE;27;-;PASEO DE CASTELLANA;JOAQUIN COSTA, CALLE Nº27 - PASEO DE CASTELLANA;442642,2;4478073,2;SI;7/C2/;442532,79;4477865,71;-3.6776975;40.4494635
2696;;MARQUESINA MOD XXI 5-M STD;CHAMBERI;RAIMUNDO FDEZ VILLAVERDE;CALLE;54;ESQ Pº CASTELLANA;Pº CASTELLANA;RAIMUNDO FDEZ VILLAVERDE,CALLE Nº54  ESQ Pº CASTELLANA Pº CASTELLANA;441411,3;4477710,2;SI;C1/;441301,9;4477502,72;-3.6921786;40.4461075
2694;;MARQUESINA MOD XXI 5-M STD;TETUAN;RAIMUNDO FDEZ VILLAVERDE;CALLE;43;ANT GRAL. MOSCARDO;CUATRO CAMINOS;RAIMUNDO FDEZ VILLAVERDE,CALLE Nº43 ANTES GRAL. MOSCARDO CUATRO CAMINOS;440923,7;4477779,7;SI;149/C2/;440814,3;4477572,23;-3.6979345;40.4466991
2693;;MARQUESINA MOD XXI 4-M STD;CHAMBERI;RAIMUNDO FDEZ VILLAVERDE;CALLE;32;ANT C/ PONZANO;Pº CASTELLANA;RAIMUNDO FDEZ VILLAVERDE,CALLE Nº32 ANT C/ PONZANO Pº CASTELLANA;440741,7;4477759,6;SI;149/C1/;440632,3;4477552,13;-3.7000787;40.446505
4663;;MARQUESINA MOD XXI 5-M STD;VILLAVERDE;ANDALUCIA;AV;0;ANT AV DE LA  FELICIDAD;M - 30;ANDALUCIA, AV Nº0 ANTES AV DE LA  FELICIDAD M - 30;441242,8;4467991,6;SI;22/59/79/85/              ;441133,34;4467784,11;-3.6932674;40.3585453
1418;;MARQUESINA MOD XXI 5-M STD;TETUAN;REINA VICTORIA;AV;24;JTO A CRUZ ROJA;C/ BEATRIZ BOBADILLA;REINA VICTORIA, AVD Nº24 JTO A CRUZ ROJA C/ BEATRIZ BOBADILLA;440075,2;4477845,2;SI;45/127/C2/F/;439965,81;4477637,74;-3.7079457;40.4472284
1415;;MARQUESINA MOD XXI 5-M STD;CHAMBERI;REINA VICTORIA;AV;41;ESQ C/ GENERAL IBAÑEZ IBERO;CUATRO CAMINOS;REINA VICTORIA, AVD Nº41 ESQ C/ GENERAL IBAÑEZ IBERO CUATRO CAMINOS;439808,5;4477771,4;SI;45/C1/F/;439699,11;4477563,94;-3.7110834;40.4465443
3198;;MARQUESINA MOD XXI 4-M REDUCIDA;VILLAVERDE;UNAMINIDAD (DE LA);CALLE;76;ESQ. C/ALIANZA;CTRA VILLA VERDE VAL;UNAMINIDAD (DE LA), CALLE Nº76 ESQ. C/ALIANZA CTRA VILLA VERDE VAL;441922,3;4467924,9;SI;123/;441812,84;4467717,4;-3.6852594;40.3579921
113;;MARQUESINA MOD XXI 5-M STD;CHAMARTIN;PERU;PZA;1;ESQ C/ PRINCIPE DE VERGARA;PRINCIPE VERGARA;PERU, PZA Nº1 ESQ C/ PRINCIPE DE VERGARA PRINCIPE VERGARA;442721,7;4479260,6;SI;51/;442612,3;4479053,11;-3.6768673;40.4601656
415;;MARQUESINA MOD XXI 5-M STD;CHAMARTIN;PRINCIPE DE VERGARA;CALLE;203;ESQ. PZA. CATALUÑA.;MENENDEZ PELAYO;PRINCIPE DE VERGARA, CALLE Nº203 ESQ. PZA. CATALUÑA. MENENDEZ PELAYO;442619,2;4478052,9;SI;16/29/52/;442509,79;4477845,41;-3.6779669;40.449279
2230;;MARQUESINA MOD XXI 4-M STD;SALAMANCA;PRINCIPE DE VERGARA;CALLE;41;-;MENENDEZ PELAYO;PRINCIPE DE VERGARA, CALLE Nº41 - MENENDEZ PELAYO;442422,8;4475677,4;SI;29/52/N2/;442313,38;4475469,91;-3.6800673;40.4278657
4787;;MARQUESINA MOD XXI 4-M STD;VILLA DE VALLECAS;FUENTESPINA;CALLE;0;ESQ. AV. MEDITERRANEO;C/REAL DE ARGANDA;FUENTESPINA, CALLE Nº0 ESQ. AV. MEDITERRANEO C/REAL DE ARGANDA;448875,5;4470369,6;SI;58/63/;448766,03;4470162,01;-3.603574;40.3804711
814;;MARQUESINA MOD XXI 5-M REDUCIDA;RETIRO;MENENDEZ Y PELAYO;AV;0;FTE Nº 47;PZA MARIANO DE CAVIA;MENENDEZ Y PELAYO, AV Nº0 FRENTE Nº 47 PZA MARIANO DE CAVIA;442559,4;4474440,7;SI;20/26/63/152/C1/;442449,98;4474233,21;-3.6783451;40.4167344
816;;MARQUESINA MOD XXI 5-M REDUCIDA;RETIRO;MENENDEZ Y PELAYO;AV;0;FTE Nº 65;PZA MARIANO DE CAVIA;MENENDEZ Y PELAYO, AV Nº0 FTE Nº 65 PZA MARIANO DE CAVIA;442630;4474174,5;SI;20/26/63/152/C1/;442520,58;4473967,01;-3.677489;40.4143412
2211;;MARQUESINA MOD XXI 5-M STD;RETIRO;MENENDEZ Y PELAYO;AV;0;PZA MARIANO DE CAVIA ESQ;PZA MARIANO DE CAVIA;MENENDEZ Y PELAYO, AV Nº0 PZA MARIANO DE CAVIA ESQ PZA MARIANO DE CAVIA;442527,3;4473473,7;SI;26/152/C1/;442417,88;4473266,21;-3.6786359;40.4080209
2212;;MARQUESINA MOD XXI 4-M REDUCIDA;RETIRO;MENENDEZ Y PELAYO;AV;71;ESQ PZA NIÑO JESUS;C/PRINCEPE D VERGARA;MENENDEZ Y PELAYO, AV Nº71 ESQ PZA NIÑO JESUS C/PRINCEPE D VERGARA;442734,5;4473808,6;SI;26/63/152/C2/;442625,08;4473601,1;-3.6762243;40.4110521
194;;MARQUESINA MOD XXI 5-M REDUCIDA ;RETIRO;MENENDEZ Y PELAYO;AV;17;ESQ C/MENORCA;C/PRINCEPE D VERGARA;MENENDEZ Y PELAYO, AV Nº17 ESQ C/MENORCA C/PRINCEPE D VERGARA;442489,2;4474787,7;SI;20/152/N8/;442379,78;4474580,21;-3.679204;40.4198555
2229;;MARQUESINA MOD XXI 5-M STD;SALAMANCA;PRINCIPE DE VERGARA;CALLE;42;PROX. C/ AYALA;PZA. PERU;PRINCIPE DE VERGARA, CALLE Nº42 PROX. C/ AYALA PZA. PERU;442446,9;4475676,9;SI;29/52/N2/;442337,48;4475469,41;-3.6797832;40.4278629
2233;;MARQUESINA MOD XXI 4-M STD;SALAMANCA;PRINCIPE DE VERGARA;CALLE;74;ANTC/ DIEGO DE LEON;AV PIO XII;PRINCIPE DE VERGARA, CALLE Nº74 ANTES C/ DIEGO DE LEON AV PIO XII;442495,1;4476375,4;SI;29/52/N2/;442385,68;4476167,91;-3.6792783;40.4341587
1576;;MARQUESINA MOD XXI 5-M STD;TETUAN;FRANCOS RODRIGUEZ;CALLE;0;FTE Nº 84;BRAVO MURILLO;FRANCOS RODRIGUEZ, CALLE Nº0 FTE Nº 84 BRAVO MURILLO;439887,9;4478973,1;SI;64/126/128/;439778,51;4478765,65;-3.7102612;40.4573755
2243;;MARQUESINA MOD XXI 4-M STD;CHAMARTIN;PRINCIPE DE VERGARA;CALLE;0;JTO. AUDITORIO NAC. MUSICA;PIO XII;PRINCIPE DE VERGARA, CALLE Nº0 JTO. AUDITORIO NAC. MUSICA PIO XII;442618,9;4477785,2;SI;29/52/;442509,49;4477577,71;-3.6779462;40.4468674
115;;MARQUESINA MOD XXI 5-M STD;CHAMARTIN;PIO XII;AV;0;JTO. C. COMERCIAL (1ºMARQUESINA);M-30;PIO XII, AVD Nº0 JTO. C. COMERCIAL (1ºMARQUESINA) M-30;442793;4479510,6;SI;REFUGIO;442683,6;4479303,11;-3.676049;40.4624226
600;10906;MARQUESINA MOD XXI 5-M STD;CENTRO;SAN VICENTE (DE);CUESTA;0;FTE AL Nº4;PLAZA ESPAÑA;SAN VICENTE (DE), CUESTA Nº0 FRENTE AL Nº4 PLAZA ESPAÑA;439583,1;4474994,6;SI;25/39/46/75/138/N18/N19/N20/C1/500/;439473,7;4474787,14;-3.7134769;40.4215133
6328;6328;MARQUESINA MOD XXI 5-M STD;FUENCARRAL;ROSA DE SABATER;CALLE;0;ESQ C/ CARBONEROS;MADRID;ROSA DE SABATER, CALLE Nº0 ESQ C/ CARBONEROS MADRID;434222,6;4486025,8;SI;601/602/;434113,28;4485818,44;-3.7778053;40.5204787
1978;;MARQUESINA MOD XXI 4-M REDUCIDA ;RETIRO;CIUDAD DE BARCELONA;AV;81;ESQ. C/ DR.ESQUERDO;GTA CARLOS V;CIUDAD DE BARCELONA, AV Nº81 ESQ. C/ DR.ESQUERDO GTA CARLOS V;442898,6;4472696,4;SI;8/10/310/136/;442789,17;4472488,9;-3.6741905;40.4010441
755;;MARQUESINA MOD XXI 4-M STD;SALAMANCA;ALCALA;CALLE;96;-;M - 30;ALCALA, CALLE Nº96 - M - 30;442742,4;4475294,1;SI;N5/N7/;442632,98;4475086,61;-3.6762652;40.4244349
5451;;MARQUESINA MOD XXI 5-M STD;SALAMANCA;ALCALA;CALLE;98;ANT C/ FERNAN GONZALEZ;N-II;ALCALA, CALLE Nº98 ANTES C/ FERNAN GONZALEZ M - 30;442865,5;4475364,8;SI;43/53/;442756,08;4475157,3;-3.6748205;40.4250802
685;;MARQUESINA MOD XXI 5-M STD;SALAMANCA;ALCALA;CALLE;166;-;M - 30;ALCALA, CALLE Nº166 - M - 30;443558,2;4475790,8;SI;12/21/38/53/106/110/146/210/N5/N7/;443448,78;4475583,29;-3.666693;40.4289651
1687;17560;MARQUESINA MOD XXI 5-M STD;MONCLOA-ARAVACA;COMPLUTENSE;AV;0;FTE COMEDORES UNIVERSITARIOS;AV MIRAFLORES;COMPLUTENSE, AV Nº0 FTE COMEDORES UNIVERSITARIOS AV MIRAFLORES;438456,7;4477438;SI;82/132/U/G/N20/865/;438347,32;4477230,55;-3.7269905;40.4434418
757;;MARQUESINA MOD XXI 5-M STD;SALAMANCA;ALCALA;CALLE;0;JTO. PLAZA DE LAS VENTAS;PUERTA DEL SOL;ALCALA, CALLE Nº0 JTO. PLAZA DE LAS VENTAS PUERTA DEL SOL;443860,6;4476012,4;SI;21/38/106/110/146/210/N5/N7/;443751,18;4475804,89;-3.6631478;40.4309819
1322;7380;MARQUESINA MOD XXI 4-M STD;BARAJAS;LOGROÑO;AV;321;DESP. C/ ALGEMESI;AV. DE AMERICA;LOGROÑO, AV Nº321 DESP. C/ ALGEMESI AV. DE AMERICA;450780,5;4480543,1;SI;105/115/211/212/827/;450671,08;4480335,5;-3.5819216;40.4722356
2059;;MARQUESINA MOD XXI 4-M REDUCIDA ;PUENTE VALLECAS;MONTE IGUELDO;CALLE;0;FTE. Nº 13;MARTINEZ RIVA;MONTE IGUELDO, CALLE Nº0 FTE. Nº 13 MARTINEZ RIVA;443421,1;4472231,5;SI;10/24/111/310/;443311,67;4472023,99;-3.6679922;40.3968916
752;;MARQUESINA MOD XXI 4-M STD;SALAMANCA;ALCALA;CALLE;115;PROX. C/ CASTELLO;PZA INDEPENDENCIA;ALCALA, CALLE Nº115 PROX. C/ CASTELLO PZA INDEPENDENCIA;442310,6;4475071,3;SI;15/52/146/N2/N3/N5/N7/;442201,18;4474863,81;-3.6813349;40.4223979
3021;;MARQUESINA MOD XXI 4-M STD;SAN BLAS;CANILLEJAS A VICALVARO;AV;93;ESQ C/ Mª SEVILLA DIAGO;C/ ALCALA;CANILLEJAS A VICALVARO, AV. Nº93 ESQ C/ Mª SEVILLA DIAGO C/ ALCALA;448248,4;4476054;SI;48/;448138,96;4475846,43;-3.6114242;40.4316412
3003;;MARQUESINA MOD XXI 5-M STD;CIUDAD LINEAL;EZEQUIEL SOLANA;CALLE;65;ANT C/ FCO VILLAESPESA;C/ ALCALA;EZEQUIEL SOLANA, CALLE Nº65 ANTES C/ FCO VILLAESPESA C/ ALCALA;445513,4;4475795,5;SI;109/;445403,97;4475587,97;-3.6436447;40.4291379
1215;;MARQUESINA MOD XXI 5-M STD;VICALVARO;CASALARREINA;CALLE;5;ESQ PZA VICALVARADA;PZA VICALVARADA;CASALARREINA, CALLE Nº5 ESQ PZA VICALVARADA PZA VICALVARADA;448290,4;4473582,8;SI;4/;448180,95;4473375,22;-3.6107278;40.4093816
3972;;MARQUESINA MOD XXI 4-M STD;VILLA DE VALLECAS;GAVIA (DE LA);AV;0;ANT C/ VILLAMAYOR DE SANTIAGO;AV ENSANCHE VALLECAS;GAVIA (DE LA), AV. Nº0 ANTES C/ VILLAMAYOR DE SANTIAGO AV ENSANCHE VALLECAS;448359,5938;4469855,5;SI;145/;448250,11;4469647,91;-3.6096099;40.3758078
2266;;MARQUESINA MOD XXI 4-M STD;LATINA;YEBENES (LOS);CALLE;159;FTE. COLONIA LOS SAUCES;Pº EXTREMADURA;YEBENES (LOS), CALLE Nº159 FTE. COLONIA LOS SAUCES Pº EXTREMADURA;436317,6;4471827;SI;31/;436208,21;4471619,56;-3.7516495;40.3927346
2284;;MARQUESINA MOD XXI 5-M STD;MORATALAZ;MORATALAZ;AV;199;ESQ  C/ DR. GARCIA TAPIA;CORREG. DIEGO VALDE.;MORATALAZ, AV Nº199 ESQ  C/ DR. GARCIA TAPIA CORREG. DIEGO VALDE.;445654,2;4473628,2;SI;32/;445544,76;4473420,66;-3.6417995;40.4096227
2015;;MARQUESINA MOD XXI 5-M STD;CHAMARTIN;LOPEZ DE HOYOS;CALLE;146;ESQ C/ CARDENAL SILICEO;C/ PADRE CLARET;LOPEZ DE HOYOS, CALLE Nº146 ESQ C/ CARDENAL SILICEO C/ PADRE CLARET;443132,2;4477633,8;SI;9/73/N2/;443022,79;4477426,3;-3.67188;40.4455388
5133;;MARQUESINA MOD XXI 4-M STD;HORTALEZA;BACARES;CALLE;0;DESP. C/ VELEZRUBIO (2ª MARQUESINA);CUEVAS DE ALMANZORA;BACARES, CALLE Nº0 DESP. C/ VELEZRUBIO (2ª MARQUESINA) CUEVAS DE ALMANZORA;443950,8;4481056,1;SI;129/;443841,4;4480848,6;-3.6625304;40.4764242
159;;MARQUESINA MOD XXI 5-M STD;RETIRO;O'DONNELL;CALLE;0;FTE Nº 9;M - 30;O'DONNELL, CALLE Nº0 FTE Nº 9 M - 30;442363,3;4474960,5;SI;20/N8/;442253,88;4474753,01;-3.6807036;40.4214034
3246;;MARQUESINA MOD XXI 4-M STD;CIUDAD LINEAL;JAZMIN;CALLE;39;ESQ C/ LAUD;C/ ARTURO SORIA;JAZMIN, CALLE Nº39 ESQ C/ LAUD C/ ARTURO SORIA;443957,1;4481713,2;SI;129/N1/;443847,71;4481505,71;-3.6625141;40.4823442
2581;;MARQUESINA MOD XXI 4-M STD;PUENTE VALLECAS;PABLO NERUDA;AV;114;DESP. GOLFO DE DAIRIEN;MARTINEZ DE LA RIVA;PABLO NERUDA, AVD Nº114 DESP. GOLFO DE DAIRIEN MARTINEZ DE LA RIVA;444836,6;4470564,2;SI;57/144/;444727,15;4470356,67;-3.6511691;40.3819666
2238;;MARQUESINA MOD XXI 5-M STD;CHAMARTIN;PRINCIPE DE VERGARA;CALLE;109;ESQ  C/ FRANCISCO SILVELA;AV MENENDEZ PELAYO;PRINCIPE DE VERGARA, CALLE Nº109  ESQ  C/ FRANCISCO SILVELA  AV MENENDEZ PELAYO;442514,6;4476973,4;SI;29/52/;442405,19;4476765,91;-3.6791025;40.4395471
1774;;MARQUESINA MOD XXI 5-M STD;CHAMBERI;LUCHANA;CALLE;19;-;GTA DE BILBAO;LUCHANA, CALLE Nº19 - GTA DE BILBAO;440699,9;4475973,5;SI;147/;440590,49;4475766,03;-3.7004047;40.4304121
2218;;MARQUESINA MOD XXI 5-M STD;SALAMANCA;CONDE DE PEÑALVER;CALLE;9;ANT C/ GOYA;C/ NARVAEZ;CONDE DE PEÑALVER, CALLE Nº9 ANTES C/ GOYA C/ NARVAEZ;442785,8;4475419,5;SI;26/61/;442676,38;4475212;-3.6757649;40.4255675
2221;;MARQUESINA MOD XXI 5-M STD;SALAMANCA;CONDE DE PEÑALVER;CALLE;50;-;FCO. SILVELA;CONDE DE PEÑALVER, CALLE Nº50 - FCO. SILVELA;442867,6;4475927,5;SI;26/61/N3/;442758,18;4475720;-3.6748464;40.4301494
2260;10788;MARQUESINA MOD XXI 5-M REDUCIDA ;LATINA;ACHICORIA;PZA;0;ESQ C/ HIGUERAS;C/ HIGUERAS;ACHICORIA, PZA. Nº0 ESQ C/ HIGUERAS C/ HIGUERAS;436877,2;4472897,7;SI;31/N18/500/;436767,81;4472690,26;-3.7451627;40.4024225
674;;MARQUESINA MOD XXI 5-M STD;SALAMANCA;GOYA;CALLE;34;-;C/ DR. ESQUERDO;GOYA, CALLE Nº34 - C/ DR. ESQUERDO;442319;4475357;SI;21/53/;442209,58;4475149,51;-3.6812618;40.4249722
242;15046;MARQUESINA MOD XXI 5-M STD;CIUDAD LINEAL;HERMANOS GARCIA NOBLEJAS;CALLE;0;ESQ C/ASCAO;PZA ALSACIA;HERMANOS GARCIA NOBLEJAS, CALLE Nº0 ESQ C/ASCAO PZA ALSACIA;446300,4;4476174,6;SI;4/38/48/70/286/288/289/N203/;446190,97;4475967,06;-3.6343993;40.4326042
1864;;MARQUESINA MOD XXI 5-M STD;CHAMBERI;SANTA ENGRACIA;CALLE;1;-;ALONSO MTNEZ.;SANTA ENGRACIA, CALLE Nº1 - ALONSO MTNEZ.;441072,7;4475734,6;SI;3/;440963,29;4475527,12;-3.6959877;40.4282864
1863;;MARQUESINA MOD XXI 5-M STD;CHAMBERI;SANTA ENGRACIA;CALLE;39;ESQ PZA CHAMBERI;ALONSO MARTINEZ;SANTA ENGRACIA, CALLE Nº39 ESQ PZA CHAMBERI ALONSO MARTINEZ;440939,8;4476147,9;SI;3/;440830,39;4475940,43;-3.6975929;40.4320003
3347;;MARQUESINA MOD XXI 4-M STD;PUENTE VALLECAS;SAN DIEGO;CALLE;0;FTE Nº 103;AV BUENOS AIRES;SAN DIEGO, CALLE Nº0 FTE Nº 103 AV BUENOS AIRES;443707,9;4470682,4;SI;144/;443598,46;4470474,89;-3.6644758;40.3829559
1771;;MARQUESINA MOD XXI 4-M STD;CHAMBERI;RUIZ JIMENEZ;GTA;7;ESQ C/ CARRANZA;C/ CARRANZA;RUIZ JIMENEZ, GTA Nº7 ESQ C/ CARRANZA C/ CARRANZA;440271,7;4475857,4;SI;147/;440162,3;4475649,93;-3.7054415;40.4293355
1870;;MARQUESINA MOD XXI 5-M STD;CHAMBERI;SANTA ENGRACIA;CALLE;70;ESQ C/ PONCE DE LEON;CUATRO CAMINOS;SANTA ENGRACIA, CALLE Nº70 ESQ C/ PONCE DE LEON CUATRO CAMINOS;440807,5;4476619,4;SI;3/;440698,1;4476411,93;-3.6991964;40.4362383
1397;;MARQUESINA MOD XXI 5-M STD;CHAMBERI;SANTA ENGRACIA;CALLE;112;ESQ C/ BRETON DE LOS HERREROS;CUATRO CAMINOS;SANTA ENGRACIA, CALLE Nº112 ESQ C/ BRETON DE LOS HERREROS CUATRO CAMINOS;440693,5;4476976,3;SI;3/37/149/N23/;440584,1;4476768,83;-3.7005738;40.4394453
1398;;MARQUESINA MOD XXI 5-M REDUCIDA;CHAMBERI;SANTA ENGRACIA;CALLE;128;-;CUATRO CAMINOS;SANTA ENGRACIA, CALLE Nº128 - CUATRO CAMINOS;440608,8;4477238;SI;3/37/149/N23/;440499,4;4477030,53;-3.7015969;40.4417967
1399;;MARQUESINA MOD XXI 5-M REDUCIDA;CHAMBERI;SANTA ENGRACIA;CALLE;142;ESQ C/ MARIA DE GUZMAN;CUATRO CAMINOS;SANTA ENGRACIA, CALLE Nº142 ESQ C/ MARIA DE GUZMAN CUATRO CAMINOS;440527,8;4477489,2;SI;3/37/45/149/;440418,4;4477281,73;-3.7025755;40.4440539
806;;MARQUESINA MOD XXI 4-M STD;CHAMBERI;CEA BERMUDEZ;CALLE;13;ANT C/ VALLEHERMOSO;C / JOSE ABASCAL;CEA BERMUDEZ, CALLE Nº13 ANTES C/ VALLEHERMOSO C / JOSE ABASCAL;440009;4476900,5;SI;12/;439899,6;4476693,04;-3.708637;40.4387134
809;;MARQUESINA MOD XXI 5-M STD;CHAMBERI;JOSE ABASCAL;CALLE;32;DESP. C/MODESTO LAFUENTE;Pº CASTELLANA;JOSE ABASCAL, CALLE Nº32 DESP. C/MODESTO LAFUENTE Pº CASTELLANA;441086,3;4476831,6;SI;12/;440976,89;4476624,13;-3.6959293;40.4381697
797;;MARQUESINA MOD XXI 5-M STD;CHAMBERI;RIOS ROSAS;CALLE;41;ESQ C/ ALONSO CANO;C/ BRAVO MURILLO;RIOS ROSAS, CALLE Nº41 ESQ C/ ALONSO CANO C/ BRAVO MURILLO;440930,8;4477247,8;SI;12/45/;440821,4;4477040,33;-3.6978013;40.441908
2313;;MARQUESINA MOD XXI 4-M STD;ARGANZUELA;IMPERIAL;Pº;0;FTE Nº 53;GTA PIRAMIDES;IMPERIAL, Pº Nº0 FTE Nº 53 GTA PIRAMIDES;439358,2;4473052,6;SI;36/62/;439248,79;4472845,13;-3.7159425;40.4040024
413;;MARQUESINA MOD XXI 5-M STD;CHAMARTIN;RAMON Y CAJAL;AV;1;ESQ. C/ PRINCIPE DE VERGARA;AV. CONCHA ESPINA;RAMON Y CAJAL, AVD Nº1 ESQ. C/ PRINCIPE DE VERGARA AV. CONCHA ESPINA;442692,4;4478324,1;SI;43/52/120/;442582,99;4478116,61;-3.6771283;40.4517272
2249;;MARQUESINA MOD XXI 5-M STD;CENTRO;SEGOVIA;CALLE;14;-;Pº EXTREMADURA;SEGOVIA, CALLE Nº14 - Pº EXTREMADURA;439782,6;4474127,3;SI;31/50/65/;439673,2;4473919,83;-3.7110431;40.4137147
3160;;MARQUESINA MOD XXI 4-M STD;CARABANCHEL;ERVIGIO;CALLE;0;FTE Nº 2;C/ EL TOBOSO;ERVIGIO, CALLE Nº0 FTE Nº 2 C/ EL TOBOSO;438004,2;4471917,2;SI;119/;437894,8;4471709,74;-3.731787;40.3936744
1568;;MARQUESINA MOD XXI 5-M STD;TETUAN;BRAVO MURILLO;CALLE;122;JTO MERCADO MARAVILLAS;PZA CASTILLA;BRAVO MURILLO, CALLE Nº122  JTO MERCADO MARAVILLAS PZA CASTILLA;440450,4;4478038,3;SI;3/64/66/124/128/N23/;440341;4477830,84;-3.7035397;40.4489949
1571;;MARQUESINA MOD XXI 4-M STD;TETUAN;BRAVO MURILLO;CALLE;192;ANT C/ MANUEL DE LUNA;PZA CASTILLA;BRAVO MURILLO, CALLE Nº192 ANTES C/ MANUEL DE LUNA PZA CASTILLA;440531,9;4478677,3;SI;64/66/124/126/128/N23/;440422,51;4478469,84;-3.7026385;40.4547572
2651;;MARQUESINA MOD XXI 4-M STD;TETUAN;BRAVO MURILLO;CALLE;318;DESP.C/ ROSA DE SILVA;PZA.CASTILLA;BRAVO MURILLO, CALLE Nº318 DESP.C/ ROSA DE SILVA PZA.CASTILLA;441098,3;4479677,3;SI;66/124/N23/;440988,91;4479469,84;-3.696052;40.463806
6325;6325;MARQUESINA MOD XXI 5-M STD;FUENCARRAL;COLMENAR;CTRA;0;FTE Nº 2;MADRID;COLMENAR, CTRA. Nº0 FTE Nº 2 MADRID;434005,2;4486969,3;SI;601/602/;433895,89;4486761,94;-3.78047;40.5289606
1530;;MARQUESINA MOD XXI 5-M STD;TETUAN;BRAVO MURILLO;CALLE;377;FTE JUZGADOS;CUATRO CAMINOS;BRAVO MURILLO, CALLE Nº377 FTE JUZGADOS  CUATRO CAMINOS;441568,2;4479894,6;SI;49/66/124;441458,81;4479687,13;-3.6905299;40.4657967
1424;;MARQUESINA MOD XXI 5-M STD;CHAMBERI;AGUSTIN DE BETHENCOURT;CALLE;3;ESQ C/ CRISTOBAL BORDIU;C/ RIOS ROSAS;AGUSTIN DE BETHENCOURT, CALLE Nº3 ESQ C/ CRISTOBAL BORDIU C/ RIOS ROSAS;441174,9;4477322,5;SI;45/;441065,5;4477115,03;-3.6949301;40.4425983
1382;;MARQUESINA MOD XXI 5-M STD;CHAMBERI;BRAVO MURILLO;CALLE;79;ESQ C/ RAMIRO II;GTA DE QUEVEDO;BRAVO MURILLO, CALLE Nº79 ESQ C/ RAMIRO II GTA DE QUEVEDO;440392,5;4477426,2;SI;3/37/149/;440283,1;4477218,73;-3.7041649;40.4434766
432;;MARQUESINA MOD XXI 5-M STD;CHAMARTIN;VELAZQUEZ;CALLE;146;-;AV DOCTOR ARCE;VELAZQUEZ, CALLE Nº146 - AV DOCTOR ARCE;442227,4;4477373,8;SI;16/19/51/N1/;442117,99;4477166,31;-3.6825251;40.4431342
1193;;MARQUESINA MOD XXI 5-M REDUCIDA;VILLAVERDE;ALCOCER;CALLE;0;JTO APEADERO RENFE;REAL DE PINTO;ALCOCER, CALLE Nº0 JTO APEADERO RENFE REAL DE PINTO;440209,1;4467074,2;SI;REFUGIO;440099,64;4466866,71;-3.7053542;40.3502073
2278;;MARQUESINA MOD XXI 5-M STD;RETIRO;CRUZ DEL SUR;CALLE;0;FTE. C/ DE PERSEO;AV MEDITERRANEO;CRUZ DEL SUR, CALLE Nº0 FTE. C/ DE PERSEO AV MEDITERRANEO;443348,1;4473407,6;SI;32/;443238,67;4473200,1;-3.6689572;40.4074817
1905;;MARQUESINA MOD XXI 5-M STD;TETUAN;ORENSE;CALLE;0;FTE Nº 14;RAIMUNDO FDEZ.V;ORENSE, CALLE Nº0 FTE Nº 14 RAIMUNDO FDEZ.V;441143,8;4478100,5;SI;5/149/;441034,4;4477893,03;-3.695369;40.4496046
527;;MARQUESINA MOD XXI 5-M STD;CHAMBERI;GENERAL MARTINEZ CAMPOS;Pº;18;-;Pº CASTELLANA;GENERAL MARTINEZ CAMPOS, Pº Nº18 - Pº CASTELLANA;441074,2;4476474,2;SI;5/16/61/;440964,79;4476266,73;-3.6960387;40.4349493
525;;MARQUESINA MOD XXI 5-M STD;CHAMBERI;ELOY GONZALO;CALLE;34;-;GENERAL M. CAMPOS;ELOY GONZALO, CALLE Nº34 - GENERAL M. CAMPOS;440756,7;4476437,7;SI;16/61/;440647,3;4476230,23;-3.6997783;40.4345979
764;;MARQUESINA MOD XXI 4-M STD;CIUDAD LINEAL;JOSE DEL HIERRO;CALLE;0;FTE C/ VIRGEN DE LLUC;C/ ARTURO SORIA;JOSE DEL HIERRO, CALLE Nº0 FTE C/ VIRGEN DE LLUC C/ ARTURO SORIA;444722,9;4476432,8;SI;48/146/;444613,47;4476225,28;-3.6530191;40.4348268
1182;;MARQUESINA MOD XXI 5-M STD;ARGANZUELA;DELICIAS;Pº;95;-;GTA CARLOS V;DELICIAS, Pº Nº97 - GTA CARLOS V;441173,5;4472079,9;SI;8/19/45/47/59/85/86/247/N13/;441064,08;4471872,42;-3.6944611;40.3953702
1184;8211;MARQUESINA MOD XXI 5-M REDUCIDA ;ARGANZUELA;DELICIAS;Pº;47;-;GTA CARLOS V;DELICIAS, Pº Nº47 - GTA CARLOS V;441252;4472898,8;SI;6/19/45/47/55/59/85/86/247/N13/N14/N801/N805/;441142,58;4472691,32;-3.6936118;40.4027528
1436;;MARQUESINA MOD XXI 5-M STD;RETIRO;DR. ESQUERDO;CALLE;187;ESQ C/GARIBAY;PZA MANUEL BECERRA;DR. ESQUERDO, CALLE Nº187 ESQ C/GARIBAY PZA MANUEL BECERRA;443072,1;4473015,5;SI;56/156/;442962,67;4472808;-3.6721747;40.4039306
2129;;MARQUESINA MOD XXI 5-M STD;RETIRO;MEDITERRANEO;AV;1;ENTRE  Nº 1-3;MARIANO CAVIA;MEDITERRANEO, AV Nº1 ENTRE  Nº 1-3 MARIANO CAVIA;442582,6;4473426,8;SI;14/32/N9/;442473,18;4473219,31;-3.67798;40.4076022
1051;;MARQUESINA MOD XXI 5-M STD;VILLA DE VALLECAS;MONTES DE BARBANZA;CALLE;9;ESQ C/ PICO DE LA CIERVA;REAL DE ARGANDA;MONTES DE BARBANZA,CALLE Nº9 ESQ C/ PICO DE LA CIERVA REAL DE ARGANDA;447552,6;4470081,4;SI;54/142/103/;447443,13;4469873,83;-3.6191342;40.3777925
2127;;MARQUESINA MOD XXI 5-M STD;RETIRO;MEDITERRANEO;AV;33;FTA Nº 28;MARIANO CAVIA;MEDITERRANEO, AV Nº33 FTA Nº 28 MARIANO CAVIA;442966,7;4473370,5;SI;14/32/63/;442857,27;4473163;-3.6734486;40.4071214
4543;;MARQUESINA MOD XXI 4-M REDUCIDA;LATINA;OCAÑA;CALLE;23;CALLEJON DE OCAÑA;C/ MAQUEDA;OCAÑA, CALLE Nº23 CALLEJON DE OCAÑA C/ MAQUEDA;436016,5;4470877,9;SI;17/N26/;435907,11;4470670,46;-3.7551016;40.3841616
4694;;MARQUESINA MOD XXI 4-M STD;VILLA DE VALLECAS;SAN JAIME;CALLE;19;ESQ PZA SAN JAIME;CTRA VILLAVERDE;SAN JAIME, CALLE Nº19 ESQ PZA SAN JAIME CTRA VILLAVERDE;447060,5;4470462,8;SI;130/T31/;446951,03;4470255,24;-3.6249627;40.3811974
151;;MARQUESINA MOD XXI 4-M STD;SALAMANCA;DR. ESQUERDO;CALLE;49;FTE. CASA DE LA MONEDA;PZA MANUEL BECERRA;DR. ESQUERDO, CALLE Nº49 FTE. CASA DE LA MONEDA PZA MANUEL BECERRA;443382,8;4475093,8;SI;2/30/56/71/143/156/;443273,38;4474886,3;-3.6686985;40.4226743
5412;;MARQUESINA MOD XXI 5-M STD;HORTALEZA;ESTACION HORTALEZA (ACCESO);CTRA;0;ESQ. C/ DEL TRINQUETE;AV. SAN LUIS;ESTACION HORTALEZA, CTRA. ACCESO Nº0 ESQ. C/ DEL TRINQUETE AV. SAN LUIS;444490;4480744,2;SI;172/;444380,6;4480536,7;-3.6561422;40.4736507
236;;MARQUESINA MOD XXI 4-M STD;CIUDAD LINEAL;ARTURO SORIA;CALLE;5;-;PZA. CIUDAD LINEAL;ARTURO SORIA, CALLE Nº5 - PZA. CIUDAD LINEAL;445938,4;4476832,5;SI;48/70/;445828,97;4476624,96;-3.638723;40.4385074
231;;MARQUESINA MOD XXI 5-M STD;CIUDAD LINEAL;ARTURO SORIA;CALLE;90;-;M-40;ARTURO SORIA, CALLE Nº90 - M-40;445357,3;4477560,9;SI;21/70/;445247,88;4477353,37;-3.6456369;40.4450313
1403;;MARQUESINA MOD XXI 5-M STD;RETIRO;CIUDAD DE BARCELONA;AV;1;FTE Nº 6 (2 MARQUESINA);GTA CARLOS V;CIUDAD DE BARCELONA, AV Nº1  FTE Nº 6 (2 MARQUESINA) GTA CARLOS V;441988,9;4473216,3;SI;24/37/54/57/141/;441879,48;4473008,81;-3.6849573;40.4056647
1407;;MARQUESINA MOD XXI 4-M STD;RETIRO;CIUDAD DE BARCELONA;AV;49;-;GTA CARLOS V;CIUDAD DE BARCELONA, AV Nº49 - GTA CARLOS V;442572,1;4472926,6;SI;24/37/54/57/141/;442462,68;4472719,11;-3.6780585;40.4030954
3797;;MARQUESINA MOD XXI 4-M STD;FUENCARRAL;SANTO DOMINGO DE LA CALZADA;AV;0;DESP Cº DE SANTIAGO;C/ CASTIELLO DE JACA;SANTO DOMINGO DE LA CALZADA, AV. Nº0 DESP Cº DE SANTIAGO C/ CASTIELLO DE JACA;443263,2;4484644,3;SI;176/;443153,83;4484436,83;-3.6709633;40.5087017
5471;;MARQUESINA MOD XXI 5-M REDUCIDA;RETIRO;CIUDAD DE BARCELONA;AV;192;DESP C/ CERRO DE LA PLATA;AV. ALBUFERA;CIUDAD DE BARCELONA, AV Nº192 DESP C/ CERRO DE LA PLATA AV. ALBUFERA;442906;4472661,6;SI;8/10/136/;442796,57;4472454,1;-3.6741002;40.4007311
336;;MARQUESINA MOD XXI 5-M STD;CARABANCHEL;GENERAL RICARDOS;CALLE;107;FTE Nº 108;MARQUES VADILLO;GENERAL RICARDOS, CALLE Nº107 FTE Nº 108  MARQUES VADILLO;438547,6;4471771,9;SI;34/35/119/N26/;438438,19;4471564,44;-3.7253707;40.3924058
878;;MARQUESINA MOD XXI 5-M STD;LATINA;EXTREMADURA;Pº;125;ESQ C/ MILAGROSA;M - 30;EXTREMADURA, Pº Nº125 ESQ C/ MILAGROSA M - 30;437610,8;4473793,9;SI;31/33/36/39/65/N18/N19/;437501,41;4473586,45;-3.7366062;40.4105512
876;;MARQUESINA MOD XXI 4-M STD;LATINA;EXTREMADURA;Pº;65;ESQ C/ GUADARRAMA;M-30;EXTREMADURA, Pº Nº65 ESQ C/ GUADARRAMA M-30;437990,5;4473974,9;SI;31/33/36/39/65/N18/N19/;437881,11;4473767,45;-3.7321491;40.4122101
874;;MARQUESINA MOD XXI 4-M STD;LATINA;PUERTA DEL ANGEL;PZA;31;ANT C/ANTILLON (2ª MQ);PUENTE SEGOVIA;PUERTA DEL ANGEL, PZA Nº31 ANTES C/ANTILLON (2ª MQ) PUENTE SEGOVIA;438289,2;4474109,5;SI;31/36/65/;438179,8;4473902,05;-3.728642;40.4134449
872;10902;MARQUESINA MOD XXI 4-M STD;LATINA;EXTREMADURA;Pº;5;FTE Nº6;M-30;EXTREMADURA, Pº Nº5 FRENTE Nº6 M-30;438547,5;4474155,3;SI;31/33/36/39/65/138/N18/N19/500/;438438,1;4473947,84;-3.7256023;40.4138766
2253;;MARQUESINA MOD XXI 5-M STD;CENTRO;SEGOVIA;CALLE;0;Pº VIRGEN DEL PUERTO;PUENTE SEGOVIA;SEGOVIA, CALLE Nº0 VIRGEN DEL PUERTO PUENTE SEGOVIA;439005,5;4474170,6;SI;31/65/;438896,1;4473963,14;-3.7202059;40.4140481
225;;MARQUESINA MOD XXI 4-M STD;CIUDAD LINEAL;ARTURO SORIA;CALLE;136;ANT C/ DIEGO DE AYLLON;M-40;ARTURO SORIA, CALLE Nº136 ANTES C/ DIEGO DE AYLLON M-40;444807,3;4478216,1;SI;11/70/122/N3/;444697,88;4478008,58;-3.6521792;40.4508974
223;;MARQUESINA MOD XXI 4-M STD;CIUDAD LINEAL;ARTURO SORIA;CALLE;164;-;M-40;ARTURO SORIA, CALLE Nº164 - M-40;444544,5;4478638;SI;11/70/122/N3/;444435,09;4478430,49;-3.655315;40.4546806
420;;MARQUESINA MOD XXI 4-M REDUCIDA ;CHAMARTIN;JOAQUIN COSTA;CALLE;18;-;FRANCISCO SILVELA;JOAQUIN COSTA, CALLE Nº18 - FRANCISCO SILVELA;441917,9;4477648,1;SI;7/C1/;441808,49;4477440,62;-3.6861995;40.4455837
1018;;MARQUESINA MOD XXI 5-M STD;PUENTE VALLECAS;ALBUFERA;AV;0;ESQ AV RAFAEL ALBERTI;CIUDAD DE BARCELONA;ALBUFERA, AV Nº0 ESQ AV RAFAEL ALBERTI CIUDAD DE BARCELONA;445821,6;4471141,5;SI;54/58/103/142/143/N25/;445712,15;4470933,96;-3.6396147;40.3872319
1847;;MARQUESINA MOD XXI 5-M STD;HORTALEZA;MAR CASPIO;CALLE;0;ESQ C/ FELIPE HERRANZ;PZA STOS.HUMOSA;MAR CASPIO, CALLE Nº0 ESQ C/ FELIPE HERRANZ PZA STOS.HUMOSA;445178,7;4480731,8;SI;9/72/107/N2/;445069,3;4480524,29;-3.648017;40.4735848
1427;;MARQUESINA MOD XXI 5-M STD;SALAMANCA;MANUEL BECERRA;PZA;17;ANT C/ DOCTOR ESQUERDO;DOCTOR ESQUERDO;MANUEL BECERRA, PZA Nº17 ANTES C/ DOCTOR ESQUERDO DOCTOR ESQUERDO;443372,9;4475648,1;SI;56/143/156/C1/;443263,48;4475440,6;-3.6688647;40.4276671
754;;MARQUESINA MOD XXI 4-M STD;SALAMANCA;ALCALA;CALLE;149;-;PZA INDEPENDENCIA;ALCALA, CALLE Nº149 - PZA INDEPENDENCIA;442716,8;4475301,8;SI;146/N3/N5/N7/;442607,38;4475094,31;-3.6765677;40.4245025
684;;MARQUESINA MOD XXI 4-M STD;SALAMANCA;ALCALA;CALLE;199;PROX. PZA MANUEL BECERRA;PUERTA DEL SOL;ALCALA, CALLE Nº199 PROX. PZA MANUEL BECERRA PUERTA DEL SOL;443474,8;4475763,1;SI;21/38/53/106/110/146/210/N5/N7/;443365,38;4475555,6;-3.6676737;40.42871
172;;MARQUESINA MOD XXI 4-M STD;CENTRO;PRINCESA;CALLE;18;-;MONCLOA;PRINCESA, CALLE Nº18 - MONCLOA;439641,6;4475500,5;SI;1/2/44/133/C1/N21;439532,2;4475293,04;-3.7128355;40.4260749
5452;;MARQUESINA MOD XXI 4-M REDUCIDA;SALAMANCA;CONDE DE PEÑALVER;CALLE;65;ESQ C/ MALDONADO;C/ NARVAEZ;CONDE DE PEÑALVER, CALLE Nº65 ESQ C/ MALDONADO C/ NARVAEZ;442848,3;4476322;SI;61/;442738,88;4476114,5;-3.6751095;40.4337019
3808;;MARQUESINA MOD XXI 4-M STD;LATINA;NAVALMORAL DE LA MATA;CALLE;0;FTE Nº 1;C/ OLIVA PLASENCIA;NAVALMORAL DE LA MATA, CALLE Nº0 FTE Nº 1 C/ OLIVA PLASENCIA;434078,1;4469924,7;SI;39/;433968,72;4469717,27;-3.7778377;40.3754235
8461;8461;MARQUESINA MOD XXI 5-M STD;LATINA;EXTREMADURA;CTRA;0;FTE Nº 519 JTO DEHESA PRINCIPE;EXTREMADURA;EXTREMADURA, CTRA Nº0 FTE Nº 519 JTO DEHESA PRINCIPE EXTREMADURA;433042,3;4470462,5;SI;495/411/512/513/514/516/518/521/522/523/528/534/539/541/545/546/547/548/551/560(DV)/581/;432932,93;4470255,09;-3.7900946;40.3801857
1095;;MARQUESINA MOD XXI 5-M STD;PUENTE VALLECAS;PEDROCHES;CALLE;0;ESQ C/ BENAMEJI;C/ LA MANCHA;PEDROCHES, CALLE Nº0 ESQ C/ BENAMEJI C/ LA MANCHA;443375,9;4470144,3;SI;103/N11/;443266,45;4469936,79;-3.6683391;40.3780859
1922;;MARQUESINA MOD XXI 5-M REDUCIDA;CENTRO;ATOCHA;CALLE;86;DESP C/ SAN EUGENIO;GTA CARLOS V;ATOCHA, CALLE Nº86 DESPUES C/ SAN EUGENIO GTA CARLOS V;441003,6;4473816,5;SI;6/26/32/;440894,19;4473609,02;-3.696624;40.4110023
1924;;MARQUESINA MOD XXI 4-M STD;CENTRO;ATOCHA;CALLE;118;(2 MARQ);GTA CARLOS V;ATOCHA, CALLE Nº118 (2 MARQ) GTA CARLOS V;441309,7;4473631,9;SI;6/26/32/;441200,28;4473424,42;-3.6929996;40.409361
1878;;MARQUESINA MOD XXI 4-M STD;CENTRO;BAILEN;CALLE;41;ESQ C/ DON PEDRO;C/ FERRAZ;BAILEN, CALLE Nº41 ESQ C/ DON PEDRO C/ FERRAZ;439550,2;4473942,3;SI;3/148/;439440,8;4473734,84;-3.7137645;40.4120313
1895;;MARQUESINA MOD XXI 4-M REDUCIDA ;CHAMBERI;GENERAL MARTINEZ CAMPOS;Pº;3;-;PZA DE QUEVEDO;GENERAL MARTINEZ CAMPOS, Pº Nº3 - PZA DE QUEVEDO;440932,2;4476488,8;SI;5/16/61/;440822,79;4476281,33;-3.6977142;40.4350707
529;;MARQUESINA MOD XXI 4-M REDUCIDA;CHAMBERI;GENERAL MARTINEZ CAMPOS;Pº;48;FTE Nº 47;Pº CASTELLANA;GENERAL MARTINEZ CAMPOS, Pº Nº48 FTE Nº 47 Pº CASTELLANA;441540,9;4476487,1;SI;7/16/40/61/147/;441431,49;4476279,62;-3.6905378;40.4350984
2946;;MARQUESINA MOD XXI 4-M STD;SAN BLAS;ALCALA;CALLE;0;ESQ C/ ALEGRIA DE ORIA;PUERTA DEL SOL;ALCALA, CALLE Nº0 ESQ C/ ALEGRIA DE ORIA PUERTA DEL SOL;446638,7;4476996,4;SI;77/104/N5/;446529,27;4476788,85;-3.6304801;40.4400292
1085;;MARQUESINA MOD XXI 4-M REDUCIDA ;CIUDAD LINEAL;DAROCA;AV;0;ESQ C/ LARGO CABALLERO;C/ ALCALA;DAROCA, AV Nº0 ESQ C/ LARGO CABALLERO C/ ALCALA;445813,5;4475192,3;SI;106/N7/;445704,06;4474984,76;-3.6400556;40.4237235
2729;;MARQUESINA MOD XXI 5-M REDUCIDA;MORATALAZ;HACIENDA DE PAVONES;CALLE;0;FTE Nº 306;PZA DEL ENCUENTRO;HACIENDA DE PAVONES, CALLE Nº0 FTE Nº 306 PZA DEL ENCUENTRO;446079,1;4472694,5;SI;71/;445969,65;4472486,96;-3.6367128;40.4012391
687;;MARQUESINA MOD XXI 4-M STD;CARABANCHEL;PESETA (DE LA);AV;33;ANT C/ PINAR DE SAN JOSE;CTRA Bº LA FORTUNA;PESETA (DE LA), AV Nº33 ANTES C/ PINAR DE SAN JOSE CTRA Bº LA FORTUNA;435391,4;4468617,8;SI;35/155/N17/;435281,99;4468410,36;-3.7622362;40.3637533
2595;;MARQUESINA MOD XXI 4-M STD;SALAMANCA;DIEGO DE LEON;CALLE;41;ESQ C/ PRINCIPE DE VERGARA;C/ SERRANO;DIEGO DE LEON, CALLE Nº41 ESQ C/ PRINCIPE DE VERGARA C/ SERRANO;442455,9;4476454;SI;61/;442346,48;4476246,51;-3.6797476;40.434864
4617;;MARQUESINA MOD XXI 4-M STD;USERA;PARQUE DE LA PALOMA;CALLE;0;FTE AL Nº 16;AV. RAFAELA  YBARRA;PARQUE DE LA PALOMA, CALLE Nº0 FRENTE AL Nº 16 AV. RAFAELA  YBARRA;439508,3;4470185,4;SI;78/;439398,88;4469977,93;-3.713901;40.3781842
355;7606;MARQUESINA MOD XXI 5-M STD;CARABANCHEL;JOAQUIN TURINA;CALLE;0;FTE Nº 37;AV AVIACION;JOAQUIN TURINA, CALLE Nº0 FTE Nº 37 AV AVIACION;436044,3;4469521,5;SI;34/486/N802/;435934,89;4469314,05;-3.7546379;40.3719446
4816;;MARQUESINA MOD XXI 5-M STD;MONCLOA-ARAVACA;MONCLOA;PZA;0;DESP C/ MENENDEZ VALDES (1ª MARQUESINA);AV ARCO VICTORIA;MONCLOA, PZA Nº0 DESP C/ MENENDEZ VALDES (1ª MARQUESINA) AV ARCO VICTORIA;439175,9;4476367,8;SI;REFUGIO;439066,51;4476160,34;-3.7184081;40.4338539
1081;;MARQUESINA MOD XXI 5-M STD;CIUDAD LINEAL;DAROCA;AV;81;-;C/ ALCALA;DAROCA, AV Nº81 - C/ ALCALA;445136,4;4475636,7;SI;106/N7/;445026,97;4475429,17;-3.6480753;40.4276825
362;7578;MARQUESINA MOD XXI 4-M STD;LATINA;GENERAL MILLAN ASTRAY;CALLE;0;DESP GRAL ROMERO BASART;CTRA FORTUNA;GENERAL MILLAN ASTRAY, CALLE Nº0 DESP GRAL ROMERO BASART CTRA FORTUNA;435048,2;4470126,1;SI;34/155/N19/483/487/;434938,81;4469918,67;-3.7664317;40.3773141
601;;MARQUESINA MOD XXI 4-M STD;MONCLOA-ARAVACA;SAN VICENTE (DE);CUESTA;26;-;GTA SAN VICENTE;SAN VICENTE (DE), CUESTA Nº26 - GTA SAN VICENTE;439345,2;4474879,5;SI;25/39/46/75/138/C2/;439235,8;4474672,04;-3.71627;40.4204591
360;7581;MARQUESINA MOD XXI 4-M STD;LATINA;GENERAL MILLAN ASTRAY;CALLE;68;ESQ C/ GENERAL SALIQUET;CTRA FORTUNA;GENERAL MILLAN ASTRAY, CALLE Nº68 ESQ C/ GENERAL SALIQUET CTRA FORTUNA;435129,6;4469781,1;SI;34/155/N19/483/487/;435020,21;4469573,66;-3.7654377;40.3742124
232;;MARQUESINA MOD XXI 5-M REDUCIDA;CIUDAD LINEAL;ARTURO SORIA;CALLE;53;FTE HOSPITAL DEL AIRE;PZA. CIUDAD LINEAL;ARTURO SORIA, CALLE Nº53 FTE HOSPITAL DEL AIRE PZA. CIUDAD LINEAL;445502,9;4477442,9;SI;70/;445393,47;4477235,37;-3.6439101;40.4439779
950;;MARQUESINA MOD XXI 5-M REDUCIDA ;RETIRO;O'DONNELL;CALLE;0;ESQ C/ SALIENTE;M-30;O'DONNELL, CALLE Nº0 ESQ C/ SALIENTE M-30;443601,8;4474829,7;SI;28/71/;443492,37;4474622,19;-3.6660938;40.42031
215;;MARQUESINA MOD XXI 4-M STD;CIUDAD LINEAL;ARTURO SORIA;CALLE;0;FTE  Nº 228;PZA. CIUDAD LINEAL;ARTURO SORIA, CALLE Nº0 FTE  Nº 228 PZA. CIUDAD LINEAL;443721,1;4479578,6;SI;7/70/;443611,69;4479371,1;-3.6651089;40.4630986
213;;MARQUESINA MOD XXI 4-M STD;CIUDAD LINEAL;ARTURO SORIA;CALLE;246;ESQ C/ GONZALEZ AMIGO;M-40;ARTURO SORIA, CALLE Nº246 ESQ C/ GONZALEZ AMIGO M-40;443666,1;4479955,4;SI;70/;443556,7;4479747,9;-3.665791;40.4664893
214;;MARQUESINA MOD XXI 5-M STD;CIUDAD LINEAL;ARTURO SORIA;CALLE;254;DESP C/ AÑASTRO;M-40;ARTURO SORIA, CALLE Nº254 DESPUES C/ AÑASTRO M-40;443648,7;4480062,3;SI;7/29/107/N1/;443539,3;4479854,8;-3.6660057;40.4674511
1836;;MARQUESINA MOD XXI 5-M STD;CIUDAD LINEAL;ARTURO SORIA;CALLE;257;-;PZA. CIUDAD LINEAL;ARTURO SORIA, CALLE Nº257 - PZA. CIUDAD LINEAL;443612,4;4480080,1;SI;29/107/N1/;443503;4479872,61;-3.6664355;40.4676091
779;;MARQUESINA MOD XXI 5-M STD;SALAMANCA;SANCHO DAVILA;CALLE;40;ESQ Pº MARQUES DE ZAFRA;PºMARQUES ZAFRA;SANCHO DAVILA, CALLE Nº40 ESQ Pº MARQUES DE ZAFRA PºMARQUES ZAFRA;443979,1;4475371;SI;12/;443869,67;4475163,49;-3.6616943;40.4252118
2731;;MARQUESINA MOD XXI 5-M REDUCIDA;MORATALAZ;HACIENDA DE PAVONES;CALLE;233;FTE CENTRO DE SALUD -MORATALAZ;PZA DEL ENCUENTRO;HACIENDA DE PAVONES, CALLE Nº233 FRENTE CENTRO DE SALUD -MORATALAZ PZA DEL ENCUENTRO;446336,5;4472584,2;SI;20/30/32/71/N8/;446227,05;4472376,65;-3.6336704;40.400262
1005;;MARQUESINA MOD XXI 5-M REDUCIDA;PUENTE VALLECAS;ALBUFERA;AV;102;DESP. C/ PICO DE ALBA;VILLA DE VALLECAS;ALBUFERA, AV Nº102 DESP. C/ PICO DE ALBA VILLA DE VALLECAS;444029,3;4471884;SI;54/58/136/N25/;443919,86;4471676,48;-3.6607954;40.3938023
1003;;MARQUESINA MOD XXI 5-M REDUCIDA ;PUENTE VALLECAS;ALBUFERA;AV;76;DESP. C/ PUERTO PAJARES;VILLA DE VALLECAS;ALBUFERA, AV Nº76 DESP. C/ PUERTO PAJARES VILLA DE VALLECAS;443817,4;4472033,3;SI;54/57/58/136/N10/N25/;443707,96;4471825,79;-3.6633053;40.395133
628;;MARQUESINA MOD XXI 4-M STD;LATINA;PESETA (DE LA);AV;0;DESP.CRTA.BARRIO FORTUNA;VIA LUSITANA;PESETA (DE LA), AV Nº0 DESP.CRTA.BARRIO FORTUNA VIA LUSITANA;435074,1;4469252,3;SI;155/;434964,7;4469044,86;-3.7660376;40.3694445
605;;MARQUESINA MOD XXI 5-M STD;CENTRO;VIRGEN DEL PUERTO;Pº;0;DESP.GTA SAN VICENTE (1ºMARQUESINA);C/ SEGOVIA;VIRGEN DEL PUERTO, Pº Nº0 DESP.GTA SAN VICENTE (1ºMARQUESINA) C/ SEGOVIA;439003,6;4474754,3;SI;33/62/;438894,2;4474546,84;-3.7202844;40.4193062
321;;MARQUESINA MOD XXI 4-M STD;ARGANZUELA;VALENCIA;RDA;9;ESQ. C/ ALONSO DEL BARCO (2ª MQ);RONDA DE ATOCHA;VALENCIA, RONDA Nº9 ESQ. C/ ALONSO DEL BARCO (2ª MQ) RONDA DE ATOCHA;440591,9;4473182,9;SI;34/36/41/119/N12/N15/;440482,49;4472975,43;-3.7014168;40.4052653
320;;MARQUESINA MOD XXI 4-M STD;CENTRO;VALENCIA;RDA;16;ANT GTA. EMBAJADORES;GTA EMBAJADORES;VALENCIA, RONDA Nº16 (2ª MAR) ANTES GTA. EMBAJADORES GTA EMBAJADORES;440581,8;4473202,8;SI;34/36/41/119/C1/;440472,39;4472995,33;-3.7015376;40.4054439
609;;MARQUESINA MOD XXI 5-M STD;CENTRO;VIRGEN DEL PUERTO;Pº;0;DESP. C/ SEGOVIA (2ºMARQUESINA);GTA. SAN VICENTE;VIRGEN DEL PUERTO, Pº Nº0 DESP. C/ SEGOVIA (2ºMARQUESINA) GTA. SAN VICENTE;438961,3;4474223;SI;25/33/39/41/62/138;438851,9;4474015,54;-3.7207319;40.4145169
608;10771;MARQUESINA MOD XXI 4-M STD;CENTRO;VIRGEN DEL PUERTO;Pº;0;DESP. GTA. SAN VICENTE (3ºMARQUESINA);C/SEGOVIA;VIRGEN DEL PUERTO, Pº Nº0 DESP. GTA. SAN VICENTE (3ºMARQUESINA) C/SEGOVIA;438937,5;4474210,9;SI;25/33/39/138/N18/N19/500/;438828,1;4474003,44;-3.7210112;40.4144062
805;;MARQUESINA MOD XXI 4-M REDUCIDA;CHAMBERI;CEA BERMUDEZ;CALLE;41;ESQ GUZMAN EL BUENO;C/ JOSE ABASCAL;CEA BERMUDEZ, CALLE Nº41 ESQ GUZMAN EL BUENO C/ JOSE ABASCAL;439683,6;4476920,1;SI;12/;439574,2;4476712,64;-3.7124753;40.4388663
81;;MARQUESINA MOD XXI 5-M REDUCIDA;CENTRO;PRADO (DEL);Pº;46;ESQ C/ ATOCHA A 25 M;GTA ATOCHA;PRADO (DEL), Pº Nº46 ESQ C/ ATOCHA A 25 M GTA ATOCHA;441344,1;4473681,9;SI;10/14/27/34/37/45/N9/N10/N11/N12/N13/N14/N15/N17/N25/N26/CT1/;441234,68;4473474,42;-3.6925989;40.4098139
2999;;MARQUESINA MOD XXI 5-M STD;CIUDAD LINEAL;EZEQUIEL SOLANA;CALLE;0;ESQ C/ RIO NERVION;C/ ALCALA;EZEQUIEL SOLANA, CALLE Nº0 ESQ C/ RIO NERVION  C/ ALCALA;445757,9;4475385,6;SI;109/;445648,46;4475178,06;-3.6407275;40.4254612
4671;;MARQUESINA MOD XXI 4-M STD;CARABANCHEL;GENERAL RICARDOS;CALLE;171;ESQ C/ MANUEL LAMELA;GTA MARQUES VADILLO;GENERAL RICARDOS, CALLE Nº171  ESQ C/ MANUEL LAMELA GTA MARQUES VADILLO;437793,9;4471156,2;SI;34/35/N17/;437684,5;4470948,74;-3.7341903;40.3868033
348;;MARQUESINA MOD XXI 5-M STD;CARABANCHEL;GENERAL RICARDOS;CALLE;0;DESP.  C/ EUGENIA DE MONTIJO;GTA MARQUES VADILLO;GENERAL RICARDOS, CALLE Nº0 DESP.  C/ EUGENIA DE MONTIJO GTA MARQUES VADILLO;436872,2;4470479,3;SI;34/;436762,8;4470271,85;-3.7449816;40.3806361
861;;MARQUESINA MOD XXI 5-M STD;MONCLOA-ARAVACA;FLORIDA (DE LA);Pº;55;DESP. GTA SAN ANTONIO FLORIDA;GTA SAN VICENTE;FLORIDA (DE LA), Pº Nº55 DESP. GTA SAN ANTONIO FLORIDA GTA SAN VICENTE;438611,5;4475310,5;SI;41/46/75/N20/;438502,11;4475103,05;-3.7249596;40.4242879
541;;MARQUESINA MOD XXI 4-M REDUCIDA;CHAMBERI;FERNANDO EL CATOLICO;CALLE;16;DESP C/ VALLEHERMOSO;C/ ARCIPRESTE HITA;FERNANDO EL CATOLICO, CALLE Nº16 DESP C/ VALLEHERMOSO C/ ARCIPRESTE HITA;439946,1;4476383,8;SI;;439836,7;4476176,34;-3.7093297;40.4340542
542;;MARQUESINA MOD XXI 4-M ESTRECHA CON LUMINARIA;CHAMBERI;FERNANDO EL CATOLICO;CALLE;52;-;C/ ARCIPRESTE HITA;FERNANDO EL CATOLICO, CALLE Nº52 - C/ ARCIPRESTE HITA;439638,4;4476412,6;SI;16/61/;439529;4476205,14;-3.7129599;40.4342913
3073;;MARQUESINA MOD XXI 5-M STD;CIUDAD LINEAL;JOSE LUIS ARRESE;CALLE;0;FTE Nº 40;M-30;JOSE LUIS ARRESE, CALLE Nº0 FTE Nº 40 M-30;444818;4475044,2;SI;110/113/210/;444708,57;4474836,68;-3.6517771;40.4223239
589;15777;MARQUESINA MOD XXI 5-M REDUCIDA;CARABANCHEL;NTRA. SRA. DE FATIMA;AV;31;ESQ C/JUANA UROSA;VIA CARPETANA;NTRA. SRA. DE FATIMA, AV Nº31 ESQ C/JUANA UROSA VIA CARPETANA;436793;4470975,3;SI;17/35/N17/N26/481/486/;436683,6;4470767,85;-3.7459639;40.3850983
596;;MARQUESINA MOD XXI 4-M STD;MONCLOA-ARAVACA;PINTOR ROSALES;Pº;0;FTE Nº 16;C/ BAILEN;PINTOR ROSALES, Pº Nº0 FTE Nº 16 C/ BAILEN;439128,6;4475479,1;SI;74/;439019,2;4475271,64;-3.7188805;40.4258447
2785;;MARQUESINA MOD XXI 5-M STD;MONCLOA-ARAVACA;FERRAZ;CALLE;0;FTE  Nº 41;Pº MORET;FERRAZ, CALLE Nº0 FTE  Nº 41 Pº MORET;439040,8;4475828,1;SI;74/;438931,41;4475620,64;-3.7199489;40.4289822
837;;MARQUESINA MOD XXI 5-M STD;MORATALAZ;HACIENDA DE PAVONES;CALLE;8;-;BULEVAR JOSÉ PRAT;HACIENDA DE PAVONES, CALLE Nº8 - BULEVAR JOSÉ PRAT;445054,3;4473048,3;SI;20/30/100/N8/;444944,86;4472840,77;-3.6488192;40.4043593
5297;;MARQUESINA MOD XXI 5-M STD;LATINA;VALMOJADO;CALLE;0;ESQ C/MAQUEDA;METRO ALUCHE;VALMOJADO, CALLE Nº0 ESQ C/MAQUEDA METRO ALUCHE;435597,9;4471152;SI;117/;435488,52;4470944,56;-3.7600605;40.3865985
3376;;MARQUESINA MOD XXI 4-M STD;CHAMBERI;FUENCARRAL;CALLE;136;ANT C/ OLID;GTA DE QUEVEDO;FUENCARRAL, CALLE Nº136 ANTES C/ OLID GTA DE QUEVEDO;440456,8;4476086,5;SI;149/;440347,4;4475879,03;-3.703281;40.4314126
457;;MARQUESINA MOD XXI 5-M REDUCIDA ;CHAMARTIN;RAMON Y CAJAL;AV;4;ESQ C/MARCENADO;C/ ARTURO SORIA;RAMON Y CAJAL, AVD Nº4 ESQ C/MARCENADO C/ ARTURO SORIA;442948,8;4478300,1;SI;43/120/;442839,39;4478092,61;-3.6741025;40.4515286
1607;;MARQUESINA MOD XXI 5-M STD;FUENCARRAL;JULIO PALACIOS;CALLE;0;JTO SUPERMERCADO ALFARO;ARZOBISPO MORCI;JULIO PALACIOS, CALLE Nº0 JTO SUPERMERCADO ALFARO ARZOBISPO MORCI;441295,9;4481769,7;SI;67/N24/;441186,52;4481562,24;-3.6939153;40.4826692
2044;;MARQUESINA MOD XXI 5-M REDUCIDA;RETIRO;INFANTA ISABEL;Pº;1;JTO MINISTERIO;GTA CARLOS V;INFANTA ISABEL, Pº Nº1 JTO MINISTERIO GTA CARLOS V;441525,4;4473516,6;SI;26/32/37/;441415,98;4473309,12;-3.690447;40.4083376
858;;MARQUESINA MOD XXI 4-M STD;MONCLOA-ARAVACA;FLORIDA (DE LA);Pº;16;-;AV. VALLADOLID;FLORIDA (DE LA), Pº Nº16 - AV. VALLADOLID;438766;4475166,5;SI;41/46/75/;438656,61;4474959,05;-3.7231245;40.4230021
870;;MARQUESINA MOD XXI 5-M REDUCIDA ;MONCLOA-ARAVACA;SAN POL DE MAR;CALLE;0;FTE  Nº 4;Pº FLORIDA;SAN POL DE MAR, CALLE Nº0 FTE  Nº 4 Pº FLORIDA;438427,9;4475305,4;SI;41/75/;438318,51;4475097,95;-3.7271233;40.4242284
3225;;MARQUESINA MOD XXI 5-M STD;FUENCARRAL;CARDENAL HERRERA ORIA;AV;9;-;LLANO CASTELLAN;CARDENAL HERRERA ORIA, AV. Nº9  - LLANO CASTELLAN;441749,3;4482691;SI;124/;441639,92;4482483,54;-3.6886511;40.4910006
308;;MARQUESINA MOD XXI 4-M STD;CHAMARTIN;ALFONSO XIII;AV;51;ESQ C/PINTOR RIBERA;C/CORAZON DE MARIA;ALFONSO XIII, AV Nº51 ESQ C/PINTOR RIBERA C/CORAZON DE MARIA;443519,5;4478470,7;SI;40/;443410,09;4478263,2;-3.6673878;40.4531044
311;;MARQUESINA MOD XXI 4-M STD;CHAMARTIN;ALFONSO XIII;AV;34;DESP C/ LOPEZ DE HOYOS;C/ FRAY BERNARDINO;ALFONSO XIII, AV Nº34  DESPUÉS C/ LOPEZ DE HOYOS  C/ FRAY BERNARDINO;443524,8;4478235,9;SI;40/43/;443415,39;4478028,4;-3.6673044;40.4509896
614;;MARQUESINA MOD XXI 4-M STD;LATINA;ERMITA DEL SANTO;Pº;46;FTE Nº23;VIA CARPETANA;ERMITA DEL SANTO, Pº Nº46 FTE Nº23 VIA CARPETANA;438673,9;4473515;SI;25/;438564,5;4473307,54;-3.7240507;40.4081178
2041;;MARQUESINA MOD XXI 5-M STD;HORTALEZA;SANTA SUSANA;CALLE;33;-;MAR DE LAS ANTILLAS;SANTA SUSANA, CALLE Nº33 - MAR DE LAS ANTILLAS;445303,4;4481204,6;SI;9/;445194;4480997,09;-3.6465869;40.4778522
1188;;MARQUESINA MOD XXI 4-M STD;ARGANZUELA;EMBAJADORES;CALLE;0;ESQ. PZA. BEATA MARIA ANA DE JESUS;M-30;EMBAJADORES, CALLE Nº0 ESQ. PZA. BEATA MARIA ANA DE JESUS M-30;441097,3;4472030,9;SI;8/19/45/47/59/85/86/247/N13/;440987,88;4471823,42;-3.6953543;40.3949234
2428;;MARQUESINA MOD XXI 4-M STD;USERA;MARCELO USERA;CALLE;150;DESP. C/ MANUEL NOVA;FDEZ. LADREDA;MARCELO USERA, CALLE Nº150 DESP. C/ MANUEL NOVA FDEZ. LADREDA;439633,7;4470966,2;SI;47/60/81/247/;439524,28;4470758,73;-3.712498;40.3852271
924;;MARQUESINA MOD XXI 5-M STD;USERA;ANTONIO LOPEZ;CALLE;134;-;AV ANDALUCIA;ANTONIO LOPEZ, CALLE Nº134 - AV ANDALUCIA;440392,9;4471668,2;SI;23/N15/;440283,48;4471460,72;-3.7036199;40.3916058
926;;MARQUESINA MOD XXI 5-M STD;USERA;ANTONIO LOPEZ;CALLE;150;ESQ C/ MATILDE GAYO;AV ANDALUCIA;ANTONIO LOPEZ, CALLE Nº150 ESQ C/ MATILDE GAYO AV ANDALUCIA;440540,8;4471499,1;SI;23/;440431,38;4471291,62;-3.7018615;40.390093
3685;;MARQUESINA MOD XXI 5-M STD;SALAMANCA;GUINDALERA;AV;0;DESP AV CAMILO JOSE CELA;PZA. VENECIA;GUINDALERA, AV. Nº0 DESP AV CAMILO JOSE CELA PZA. VENECIA;443630,7;4477091,6;SI;43/;443521,28;4476884,1;-3.665954;40.4406884
1865;;MARQUESINA MOD XXI 5-M REDUCIDA ;CHAMBERI;SANTA ENGRACIA;CALLE;4;ESQ PZA ALONSO MARTINEZ;CUATRO CAMINOS;SANTA ENGRACIA, CALLE Nº4 ESQ PZA ALONSO MARTINEZ CUATRO CAMINOS;441092,8;4475742,3;SI;3/N23/;440983,39;4475534,82;-3.6957515;40.4283572
2431;;MARQUESINA MOD XXI 4-M STD;USERA;MARCELO USERA;CALLE;167;FTE Nº 170;LEGAZPI;MARCELO USERA, CALLE Nº167 FTE Nº 170 LEGAZPI;439361,9;4470956,2;SI;47/247/;439252,49;4470748,73;-3.7156989;40.3851173
252;10849;MARQUESINA MOD XXI 5-M STD;SAN BLAS;HERMANOS GARCIA NOBLEJAS;CALLE;0;ESQ AV ARCENTALES;C/ARTURO SORIA;HERMANOS GARCIA NOBLEJAS, CALLE Nº0 ESQ AV ARCENTALES C/ARTURO SORIA;446859,7;4475216,4;SI;4/38/48/N6/N203/;446750,26;4475008,85;-3.6277254;40.4240081
1118;;MARQUESINA MOD XXI 4-M STD;ARGANZUELA;YESERIAS;Pº;0;FTE Nº 33;LEGAZPI;YESERIAS, Pº Nº0 FTE Nº 33 LEGAZPI;439977,2;4472411,8;SI;18/N12/;439867,79;4472204,33;-3.7085877;40.3982747
2950;;MARQUESINA MOD XXI 4-M STD;SAN BLAS;ALCALA;CALLE;0;FTE Nº 520;PUERTA DEL SOL;ALCALA, CALLE Nº0 FTE Nº 520 PUERTA DEL SOL;447183,3;4477185,5;SI;77/104/                      ;447073,87;4476977,95;-3.6240748;40.4417676
1844;;MARQUESINA MOD XXI 5-M REDUCIDA;HORTALEZA;SAN LUIS;AV;0;FTE Nº7;AV. BURGOS;SAN LUIS, AVD Nº0 FTE Nº7 AV. BURGOS;444849,3;4480617,6;SI;107/125/172/;444739,9;4480410,09;-3.6518928;40.4725342
1840;;MARQUESINA MOD XXI 4-M STD;HORTALEZA;SAN LUIS;AV;106;DESP. ACCESO ESTACION HORTALEZA;AV. BURGOS;SAN LUIS, AVD Nº106 DESP. ACCESO ESTACION HORTALEZA AV. BURGOS;444258,5;4480488,2;SI;107/125/;444149,1;4480280,7;-3.6588505;40.471329
2420;;MARQUESINA MOD XXI 4-M REDUCIDA;ARGANZUELA;TORTOSA;CALLE;4;-;MENDEZ ALVARO;TORTOSA, CALLE Nº4 - MENDEZ ALVARO;441327,1;4473272,9;SI;47/55/247/;441217,68;4473065,42;-3.6927614;40.4061282
841;;MARQUESINA MOD XXI 5-M STD;MORATALAZ;CORREGIDOR CONDE MACEDA;PZA;0;ESQ.HACIENDA PAVONES;HACIEND.PAVONES;CORREGIDOR CONDE MACEDA, PZA Nº0 ESQ.HACIENDA PAVONES HACIEND.PAVONES;445522,1;4472926,9;SI;20/30/N8/;445412,66;4472719,36;-3.6432961;40.4032963
829;;MARQUESINA MOD XXI 5-M STD;MORATALAZ;CORREGIDOR DIEGO VALDERRABANOS;;0;FTE C/LITUANIA;C/FELIX RODRIGUEZ DE;CORREGIDOR DIEGO VALDERRABANOS Nº0 FRT C/LITUANIA C/FELIX RODRIGUEZ DE;444098,4;4473599,2;SI;20/;443988,97;4473391,68;-3.660132;40.4092584
4279;;MARQUESINA MOD XXI 5-M STD;PUENTE VALLECAS;UNIVERSIDAD POLITECNICA;;0;JTO CPEE VALLECAS;N - III;UNIVERSIDAD POLITECNICA Nº0 JTO CPEE VALLECAS N - III;446554,4;4471239,7;SI;E/;446444,94;4471032,15;-3.6309898;40.3881639
1750;;MARQUESINA MOD XXI 4-M REDUCIDA;CENTRO;PRINCESA;CALLE;2;2ª MARQUESINA;PZA. MONCLOA;PRINCESA, CALLE Nº2 2ª MARQUESINA PZA. MONCLOA;439720,9;4475354,2;SI;1/2/44/133/C1/;439611,5;4475146,74;-3.7118868;40.4247627
1964;;MARQUESINA MOD XXI 4-M STD;ARGANZUELA;RAMIREZ PRADO;CALLE;0;FTE Nº 3 DE C/ BUSTAMANTE;MENDEZ ALVARO;RAMIREZ PRADO, CALLE Nº0 FTE Nº 3 DE C/ BUSTAMANTE MENDEZ ALVARO;441275,1;4472666,6;SI;8/;441165,68;4472459,12;-3.6933182;40.4006627
3191;;MARQUESINA MOD XXI 4-M STD;LATINA;ILLESCAS;CALLE;24;FTE AL Nº 87;C/DE LOS YEBENES;ILLESCAS, CALLE Nº24 FRENTE AL Nº 87 C/DE LOS YEBENES;435395,1;4471966,3;SI;25/121/;435285,72;4471758,87;-3.7625323;40.3939184
5192;;MARQUESINA MOD XXI 4-M STD;LATINA;SEPULVEDA;CALLE;0;ESQ. C/ LOS YEBENES;Pº ERMITA DEL SANTO;SEPULVEDA, CALLE Nº0 ESQ. C/ LOS YEBENES Pº ERMITA DEL SANTO;435963,8;4472455,1;SI;55/;435854,42;4472247,66;-3.7558811;40.3983656
2632;;MARQUESINA MOD XXI 5-M STD;MONCLOA-ARAVACA;CAMPAMENTO;Cº;0;-;C/ SAN MANUEL;CAMPAMENTO, CAMINO Nº0 - C/ SAN MANUEL;435643,9;4473099,5;SI;55/65/;435534,52;4472892,07;-3.7597157;40.404146
1125;;MARQUESINA MOD XXI 5-M STD;ARGANZUELA;CHOPERA (DE LA);Pº;71;ANT C/ ENRIQUE TROMPETA;Pº YESERIAS;CHOPERA (DE LA), Pº Nº71 ANTES C/ ENRIQUE TROMPETA Pº YESERIAS;441032,3;4471708,1;SI;6/18/78/148/N12/N14/;440922,88;4471500,62;-3.6960903;40.3920108
4083;;MARQUESINA MOD XXI 4-M STD;TETUAN;BRAVO MURILLO;CALLE;236;ANT C/FRANCISCO MEDRANO;PZA. CASTILLA;BRAVO MURILLO, CALLE Nº236 ANTES C/FRANCISCO MEDRANO PZA. CASTILLA;440748,4;4479124,8;SI;66/124/N23/;440639,01;4478917,34;-3.7001272;40.4588039
3531;;MARQUESINA MOD XXI 4-M STD;SAN BLAS;SEGUNDA;AV;7;-;C/ ALCALA;SEGUNDA, AVD Nº7 - C/ ALCALA;449725,6;4477763,4;SI;77/N5/;449616,17;4477555,81;-3.5941449;40.4471312
4624;;MARQUESINA MOD XXI 4-M STD;USERA;GRAN AVENIDA;CALLE;2;Bº MESETA ORCASITAS;C/ CAMPOTEJAR;GRAN AVENIDA, CALLE Nº2 Bº MESETA ORCASITAS  C/ CAMPOTEJAR;439784,7;4469200,4;SI;78/81/116/N15/;439675,27;4468992,92;-3.7105521;40.3693308
474;;MARQUESINA MOD XXI 5-M STD;HORTALEZA;MOTA DEL CUERVO;CALLE;16;FTE Nº 1;C/PEDROÑERAS;MOTA DEL CUERVO, CALLE Nº16 FRTE Nº 1 C/PEDROÑERAS;446327,6;4479738,3;SI;73/120/N3/;446218,19;4479530,77;-3.6343802;40.4647098
2207;;MARQUESINA MOD XXI 5-M STD;PUENTE VALLECAS;GLORIETAS;AV;27;-;RONDA DEL SUR;GLORIETAS, AV Nº27 -  RONDA DEL SUR;444138;4469597,2;SI;24/102/;444028,54;4469389,68;-3.659314;40.3732087
2208;;MARQUESINA MOD XXI 4-M STD;PUENTE VALLECAS;COOPERATIVA ELECTRICA;CALLE;0;ESQ C/ VECINOS DEL POZO;RONDA DEL SUR;COOPERATIVA ELECTRICA, CALLE Nº0 ESQ C/ VECINOS DEL POZO RONDA DEL SUR;444115,4;4469741,8;SI;24/102/;444005,94;4469534,28;-3.6595929;40.3745098
1104;;MARQUESINA MOD XXI 5-M STD;PUENTE VALLECAS;JAVIER DE MIGUEL;CALLE;5;ANT C/ CARLOS MARTIN ALVAREZ;C/ MARTINEZ  LA RIVA;JAVIER DE MIGUEL, CALLE Nº5 ANTES C/ CARLOS MARTIN ALVAREZ C/ MARTINEZ  LA RIVA;443794,6;4471345,8;SI;103/310/;443685,16;4471138,29;-3.6635131;40.3889381
945;;MARQUESINA MOD XXI 4-M STD;USERA;SAN MARTIN DE LA VEGA;GTA;0;ESQ C/ MOTRIL;C/ ANTEQUERA;SAN MARTIN DE LA VEGA, GTA Nº0 ESQ C/ MOTRIL C/ ANTEQUERA;441397,6;4469039,6;SI;23/78/123/N12/;441288,15;4468832,11;-3.6915408;40.3679972
1449;;MARQUESINA MOD XXI 4-M STD;VILLAVERDE;CONCEPCION DE LA OLIVA;CALLE;13;-;J.J.MTNEZ. SECO;CONCEPCION DE LA OLIVA, CALLE Nº13 - J.J.MTNEZ. SECO;442193,7;4467484,9;SI;85/123/                         ;442084,23;4467277,4;-3.6820236;40.3540472
2932;;MARQUESINA MOD XXI 5-M REDUCIDA ;PUENTE VALLECAS;SUR;RDA;231;FTE POLIDEPORTIVO;C/ LA MANCHA;SUR, RONDA Nº231 FTE POLIDEPORTIVO C/ LA MANCHA;442977,5;4470122,5;SI;102/111/;442868,06;4469915;-3.67303;40.3778623
2938;;MARQUESINA MOD XXI 5-M STD;PUENTE VALLECAS;SUR;RDA;217;ESQ C/ MONTANCHEZ;C/ BOHONAL;SUR, RONDA Nº217 ESQ C/ MONTANCHEZ  C/ BOHONAL;443125,7;4469712,4;SI;102/111/;443016,25;4469504,89;-3.6712478;40.374178
2937;;MARQUESINA MOD XXI 5-M REDUCIDA ;PUENTE VALLECAS;HORNACHOS;CALLE;0;ESQ C/ MONTANCHEZ;C/ MONTANCHEZ;HORNACHOS, CALLE Nº0 ESQ C/ MONTANCHEZ C/ MONTANCHEZ;443273,9;4469726,9;SI;102/111/;443164,45;4469519,39;-3.6695034;40.3743187
2623;;MARQUESINA MOD XXI 5-M STD;VILLA DE VALLECAS;MEDITERRANEO;AV;0;FTE C/ CASTRILLO DE AZA;N - III;MEDITERRANEO, AV Nº0 FTE C/ CASTRILLO DE AZA N - III;448626,5;4470951,8;SI;63/145/N9/;448517,03;4470744,21;-3.6065543;40.3857006
2615;;MARQUESINA MOD XXI 5-M STD;VILLA DE VALLECAS;FUENTESPINA;CALLE;0;FTE Nº 6;AV MEDITERRANEO;FUENTESPINA, CALLE Nº0 FTE Nº 6 AV MEDITERRANEO;448733,7;4470302,3;SI;63/145/N9/;448624,23;4470094,71;-3.605239;40.379856
345;;MARQUESINA MOD XXI 5-M STD;CARABANCHEL;GENERAL RICARDOS;CALLE;0;DESP.C/ NUESTRA SRA. DE LA LUZ;AV. DE LOS POBLADOS;GENERAL RICARDOS, CALLE Nº0 DESP.C/ NUESTRA SRA. DE LA LUZ AV. DE LOS POBLADOS;437065,3;4470701,3;SI;34/;436955,9;4470493,85;-3.7427289;40.3826506
343;;MARQUESINA MOD XXI 5-M STD;CARABANCHEL;GENERAL RICARDOS;CALLE;218;ANT. Pº MUÑOZ GRANDES;EUGENIA DE MONTIJO;GENERAL RICARDOS, CALLE Nº218 ANT. Pº MUÑOZ GRANDES EUGENIA DE MONTIJO;437367,625;4470935;SI;34/35/N17/;437258,23;4470727,54;-3.7391904;40.3847786
2756;;MARQUESINA MOD XXI 5-M REDUCIDA;HORTALEZA;CANILLAS;CTRA;0;FTE JUNTA DISTRITO;LOPEZ DE HOYOS;CANILLAS, CTRA Nº0 FTE JUNTA DISTRITO LOPEZ DE HOYOS;444394,1;4479581,1;SI;73/N3/;444284,69;4479373,59;-3.6571714;40.4631665
3028;;MARQUESINA MOD XXI 4-M STD;BARAJAS;CORBETA;CALLE;12;-;M.AGUILAR MUÑOZ;CORBETA, CALLE Nº12 - M.AGUILAR MUÑOZ;450291;4478836,8;SI;112/115/151/;450181,57;4478629,2;-3.587562;40.4568351
2472;;MARQUESINA MOD XXI 5-M STD;CARABANCHEL;OPORTO;AV;25;ESQ. C/ PORTOALEGRE;PZA. FDEZ. LADREDA;OPORTO, AV Nº25 ESQ. C/ PORTOALEGRE PZA. FDEZ. LADREDA;438714,2;4470984,3;SI;55/81/247/N17/;438604,79;4470776,83;-3.7233319;40.3853229
3041;;MARQUESINA MOD XXI 4-M STD;CARABANCHEL;CAMINO VIEJO DE LEGANES;;261;JTO PZA DUQUE DE MODENA;C/ GENERAL RICARDOS;CAMINO VIEJO DE LEGANES Nº261 JTO PZA DUQUE DE MODENA  C/ GENERAL RICARDOS;437857,3;4470226,6;SI;118/N16/;437747,89;4470019,14;-3.7333527;40.3784337
351;;MARQUESINA MOD XXI 5-M REDUCIDA ;CARABANCHEL;EUGENIA DE MONTIJO;CALLE;88;-;JOAQUIN TURINA;EUGENIA DE MONTIJO, CALLE Nº88 - JOAQUIN TURINA;436594,4;4470215,6;SI;34/;436485;4470008,15;-3.7482278;40.3782394
358;7584;MARQUESINA MOD XXI 5-M STD;CARABANCHEL;JOAQUIN TURINA;CALLE;0;FTE Nº 68;EUGENIA DE MONTIJO;JOAQUIN TURINA, CALLE Nº0 FTE Nº 68 EUGENIA DE MONTIJO;435674,9;4469541,2;SI;34/486/N802/;435565,5;4469333,76;-3.7589907;40.3720937
2432;;MARQUESINA MOD XXI 5-M STD;CARABANCHEL;OPORTO;AV;0;ESQ. C/ EVORA.;GRAL. RICARDOS;OPORTO, AV Nº0 ESQ. C/ EVORA. GRAL. RICARDOS;439064,5;4470975,8;SI;47/55/81/247/N17/ ;438955,09;4470768,33;-3.7192043;40.3852721
2471;;MARQUESINA MOD XXI 4-M STD;CARABANCHEL;OPORTO;AV;49;PROX. Cº VIEJO DE LEGANES.;PZA.FDEZ. LADREDA;OPORTO, AV Nº49 PROX. Cº VIEJO DE LEGANES. PZA.FDEZ. LADREDA;438371;4471069,5;SI;55/81/108/247/N17/;438261,59;4470862,04;-3.7273833;40.3860652
2568;;MARQUESINA MOD XXI 4-M STD;PUENTE VALLECAS;MARTINEZ DE LA RIVA;CALLE;127;DESP. C/ EDUARDO ROJO;AV ALBUFERA;MARTINEZ DE LA RIVA, CALLE Nº127 DESP. C/ EDUARDO ROJO AV ALBUFERA;443753;4471030;SI;57/144/;443643,56;4470822,49;-3.6639753;40.3860904
1962;;MARQUESINA MOD XXI 5-M STD;USERA;GUETARIA;CALLE;0;ESQ C/ TOLOSA;C/ TOLOSA;GUETARIA, CALLE Nº0 ESQ C/ TOLOSA C/ TOLOSA;439365,2;4469610,5;SI;6/60/;439255,77;4469403,03;-3.715532;40.3729948
2527;;MARQUESINA MOD XXI 5-M STD;PUENTE VALLECAS;ANDALUCES;CALLE;0;ESQ C/ ANTONIO MAIRENA;AV PABLO NERUDA;ANDALUCES, CALLE Nº0 ESQ C/ ANTONIO MAIRENA AV PABLO NERUDA;445862,6;4471509,6;SI;54/144/N10/;445753,15;4471302,06;-3.639163;40.3905507
2518;;MARQUESINA MOD XXI 5-M STD;PUENTE VALLECAS;BENJAMIN PALENCIA;CALLE;18;-;AV PABLO NERUDA;BENJAMIN PALENCIA, CALLE Nº18 - AV PABLO NERUDA;445055,4;4471959,6;SI;54/;444945,96;4471752,07;-3.6487121;40.3945517
1015;;MARQUESINA MOD XXI 4-M STD;PUENTE VALLECAS;ALBUFERA;AV;252;COLONIA VILLOTA;AV DEMOCRACIA;ALBUFERA, AV Nº252 COLONIA VILLOTA AV DEMOCRACIA;445527,4;4471288,9;SI;58/103/142/143/N25/;445417,95;4471081,36;-3.6430934;40.3885406
2289;;MARQUESINA MOD XXI 5-M STD;MORATALAZ;LUIS DE HOYOS SAINZ;CALLE;0;FTE Nº50;C/ PICO ARTILLEROS;LUIS DE HOYOS SAINZ, CALLE Nº0 FTE Nº50 C/ PICO ARTILLEROS;445995,5;4473078,2;SI;32/N8/;445886,05;4472870,66;-3.6377306;40.4046902
1248;;MARQUESINA MOD XXI 4-M STD;CIUDAD LINEAL;JUAN PEREZ DE ZUÑIGA;CALLE;47;-;C/ VIRGEN DEL VAL;JUAN PEREZ DE ZUÑIGA, CALLE Nº47 - C/ VIRGEN DEL VAL;445240,7;4477493,7;SI;21/;445131,28;4477286,17;-3.647006;40.4444182
1782;;MARQUESINA MOD XXI 5-M STD;FUENCARRAL;MELCHOR FDEZ ALMAGRO;CALLE;0;FTE Nº 64;GUINZO DE LIMIA;MELCHOR FDEZ ALMAGRO, CALLE Nº0 FTE Nº 64 GUINZO DE LIMIA;440158;4481046,6;SI;147/;440048,62;4480839,15;-3.7072716;40.4760739
3231;;MARQUESINA MOD XXI 4-M STD;FUENCARRAL;ALFREDO MARQUERIE;CALLE;23;ANT. C/ VALENCIA DON JUAN;C/ SANGENJO;ALFREDO MARQUERIE, CALLE Nº23 ANT. C/ VALENCIA DON JUAN C/ SANGENJO;440641,3;4482274,6;SI;124/;440531,92;4482067,15;-3.7016855;40.487171
1612;;MARQUESINA MOD XXI 5-M STD;FUENCARRAL;FERMIN CABALLERO;CALLE;36;;C/ ISLA TABARCA;FERMIN CABALLERO, CALLE Nº36 C/ ISLA TABARCA;440431;4482049,8;SI;67/124/133/N23/;440321,62;4481842,35;-3.7041456;40.4851308
1615;;MARQUESINA MOD XXI 4-M REDUCIDA;FUENCARRAL;FERMIN CABALLERO;CALLE;62;-;ISLA TABARCA;FERMIN CABALLERO, CALLE Nº62 - ISLA TABARCA;439995;4481803,1;SI;67/124/127/133/;439885,63;4481595,66;-3.7092661;40.4828771
1618;;MARQUESINA MOD XXI 5-M STD;FUENCARRAL;FERMIN CABALLERO;CALLE;67;FTE  Nº 68;GINZO DE LIMIA;FERMIN CABALLERO, CALLE Nº67 FTE  Nº 68 GINZO DE LIMIA;439804,5;4481740,9;SI;67/127/133/;439695,13;4481533,46;-3.7115076;40.4823029
1365;;MARQUESINA MOD XXI 4-M STD;FUENCARRAL;MONFORTE DE LEMOS;AV;0;FTE  Nº 129;AV BETANZOS;MONFORTE DE LEMOS, AV Nº0  FTE  Nº 129 AV BETANZOS;439850,1;4481277,1;SI;49/83/128/132/137/N22/;439740,72;4481069,65;-3.7109257;40.4781281
1502;;MARQUESINA MOD XXI 5-M STD;FUENCARRAL;BETANZOS;AV;21;ESQ C/ CHANTADA;Cº DEL CHORRILLO;BETANZOS, AV. Nº21 ESQ C/ CHANTADA Cº DEL CHORRILLO;439767,7;4480773,3;SI;42/;439658,32;4480565,85;-3.7118498;40.4735837
4393;;MARQUESINA MOD XXI 5-M STD;SAN BLAS;ALBAIDA;CALLE;0;DESP. AV AJALVIR A VICALVARO;C/ ALBERIQUE;ALBAIDA, CALLE Nº0 DESP. AV AJALVIR A VICALVARO C/ ALBERIQUE;448136,1;4476309,7;SI;38/153/;448026,66;4476102,13;-3.612769;40.4339377
2354;;MARQUESINA MOD XXI 5-M STD;SAN BLAS;POBLADURA DEL VALLE;CALLE;0;ESQ C/ ALCONERA;PZA AMPOSTA;POBLADURA DEL VALLE, CALLE Nº0 ESQ C/ ALCONERA PZA AMPOSTA;447657,1;4475523,2;SI;48/N6/;447547,66;4475315,64;-3.6183513;40.4268225
2338;;MARQUESINA MOD XXI 4-M STD;SAN BLAS;POBLADURA DEL VALLE;CALLE;0;FTE. Nº5;AJALVIR A VICALVARO;POBLADURA DEL VALLE, CALLE Nº0 FTE. Nº5 AJALVIR A VICALVARO;447112,9;4475084,7;SI;38/48/N6/;447003,46;4474877,14;-3.6247298;40.4228377
1934;;MARQUESINA MOD XXI 4-M STD;ARGANZUELA;JAIME EL CONQUISTADOR;CALLE;23;FTE  Nº 38;C/ EMBAJADORES;JAIME EL CONQUISTADOR, CALLE Nº23 FTE  Nº 38 C/ EMBAJADORES;440861,5;4472129,5;SI;6/78/148/N14/;440752,08;4471922,02;-3.6981418;40.3957949
105;;MARQUESINA MOD XXI 4-M STD;CHAMARTIN;FRAY BERNARDINO SAHAGUN;CALLE;1;ESQ PZA MADRE MOLAS;PZA MADRE MOLAS;FRAY BERNARDINO SAHAGUN, CALLE Nº1 ESQ PZA MADRE MOLAS PZA MADRE MOLAS;442067,1;4479540,6;SI;150/;441957,7;4479333,12;-3.6846132;40.4626426
1993;;MARQUESINA MOD XXI 4-M STD;MORATALAZ;ARROYO DE FONTARRON;CALLE;81;DESP C/ ENCOMIENDA DE PALACIOS;PZA ENCUENTRO;ARROYO DE FONTARRON, CALLE Nº81 DESP C/ ENCOMIENDA DE PALACIOS PZA ENCUENTRO;445096,9;4472665,6;SI;8/;444987,46;4472458,07;-3.6482841;40.4009145
1021;;MARQUESINA MOD XXI 4-M STD;FUENCARRAL;MONASTERIO DE SILOS;AV;0;DESP.C/MONASTERIO DE CAAVEIRO;MONASTERIO EL ESCORI;MONASTERIO DE SILOS, AV. Nº0 DESP.C/MONASTERIO DE CAAVEIRO MONASTERIO EL ESCORI;441142,8;4484236,2;SI;134/178/N23/;441033,43;4484028,75;-3.695951;40.5048775
2049;;MARQUESINA MOD XXI 5-M REDUCIDA ;RETIRO;REINA CRISTINA;Pº;11;-;GTA CARLOS V;REINA CRISTINA, Pº Nº11 - GTA CARLOS V;442196,1;4473362,5;SI;10/14/26/32/C1/N9/;442086,68;4473155,01;-3.6825289;40.4069962
2052;;MARQUESINA MOD XXI 4-M STD;RETIRO;CAVANILLES;AV;36;-;DOCTOR ESQUERDO;CAVANILLES, AV Nº36 - DOCTOR ESQUERDO;442792,5;4473217,3;SI;10/;442683,07;4473009,8;-3.6754876;40.4057293
1928;;MARQUESINA MOD XXI 4-M STD;ARGANZUELA;EMBAJADORES;CALLE;114;DESP GTA STA Mª DE LA CABEZA;PZA B. Mª JESUS;EMBAJADORES, CALLE Nº114 DESP GTA STA Mª DE LA CABEZA PZA B. Mª JESUS;440789,5;4472619,9;SI;6/59/78/85/148/;440680,09;4472412,42;-3.6990357;40.4002075
2027;;MARQUESINA MOD XXI 5-M REDUCIDA;HORTALEZA;LOPEZ DE HOYOS;CALLE;392;FTE Nº 323;PZA STOS.HUMOSA;LOPEZ DE HOYOS, CALLE Nº392 FTE Nº 323 PZA STOS.HUMOSA;444265,7;4479434,5;SI;9/72/73/;444156,29;4479226,99;-3.6586729;40.4618372
7324;7324;MARQUESINA MOD XXI 4-M STD;BARAJAS;LOGROÑO;AV;0;FTE. C/ ACADEMOS (2ª MARQ.);BARAJAS (PUEBLO);LOGROÑO, AV Nº0 FTE. C/ ACADEMOS (2ª MARQ.) BARAJAS (PUEBLO);448552,2;4478210,3;SI;827/828/211/212/;448442,77;4478002,73;-3.6080176;40.4510854
1181;;MARQUESINA MOD XXI 4-M STD;VILLAVERDE;ROCAFORT;CALLE;0;FTE C/ MONCADA;AV ANDALUCIA;ROCAFORT, CALLE Nº0 FTE C/ MONCADA AV ANDALUCIA;441338,6;4466147,6;SI;59/79/N13/;441229,12;4465940,1;-3.6919697;40.3419402
1179;;MARQUESINA MOD XXI 5-M STD;VILLAVERDE;BURJASOT;CALLE;0;ESQ C/ BENIFERRI;C/ GODELLA;BURJASOT, CALLE Nº0 ESQ C/ BENIFERRI C/ GODELLA;441414,8;4466498,7;SI;59/79/N13/;441305,33;4466291,2;-3.6911047;40.3451084
1925;;MARQUESINA MOD XXI 4-M STD;CENTRO;ATOCHA;CALLE;125;ESQ C/ CENICERO;JACIN.BENAVENTE;ATOCHA, CALLE Nº125 ESQ C/ CENICERO JACIN.BENAVENTE;441300,2;4473665,3;SI;6/26/32/;441190,78;4473457,82;-3.6931147;40.4096613
2105;;MARQUESINA MOD XXI 5-M STD;PUENTE VALLECAS;VILLALOBOS;CALLE;87;C/LEONESES;C/ RAFAEL ALBERTI;VILLALOBOS, CALLE Nº87 C/LEONESES C/ RAFAEL ALBERTI;444917,9;4470485,5;SI;310/;444808,45;4470277,97;-3.6502046;40.381263
638;;MARQUESINA MOD XXI 5-M ESTRECHA ;LATINA;SESEÑA;CALLE;0;FTE  Nº 77;AV. PADRE PIQUER;SESEÑA, CALLE Nº0 FTE  Nº 77 AV. PADRE PIQUER;435150,7;4472309,7;SI;25/;435041,32;4472102,27;-3.7654469;40.3969928
2172;;MARQUESINA MOD XXI 4-M STD;RETIRO;ALFONSO XII;CALLE;22;ESQ C/ ANTONIO MAURA;Pº INFANTA ISABEL;ALFONSO XII, CALLE Nº22 ESQ C/ ANTONIO MAURA Pº INFANTA ISABEL;441645,2;4474404,2;SI;19/CT2/;441535,78;4474196,72;-3.6891168;40.4163419
2174;;MARQUESINA MOD XXI 5-M STD;RETIRO;ALFONSO XII;CALLE;48;ESQ C/ ESPALTER;Pº INFANTA ISABEL;ALFONSO XII, CALLE Nº48 ESQ C/ ESPALTER Pº INFANTA ISABEL;441654,7;4473979,3;SI;19/;441545,28;4473771,82;-3.6889657;40.4125149
2025;;MARQUESINA MOD XXI 5-M STD;CIUDAD LINEAL;LOPEZ DE HOYOS;CALLE;259;ESQ C/ PEDRO SALINAS;RAMON Y CAJAL;LOPEZ DE HOYOS, CALLE Nº259 ESQ C/ PEDRO SALINAS RAMON Y CAJAL;444056,1;4478864,1;SI;9/53/72/73/N2/;443946,69;4478656,59;-3.6610946;40.4566846
1413;;MARQUESINA MOD XXI 5-M REDUCIDA;CHAMBERI;PRESIDENTE Gª MORENO;GTA;2;JTO COLEGIO MAYOR;REINA VICTORIA;PRESIDENTE Gª MORENO, GTA Nº2 JTO COLEGIO MAYOR REINA VICTORIA;439480,1;4477672,7;SI;45/;439370,71;4477465,24;-3.7149463;40.4456313
2710;;MARQUESINA MOD XXI 4-M STD;CHAMBERI;JUAN XXIII;Pº;14;DESP DE C/ VICENTE ALEIXANDRE;RAMIRO DE MAEZTU;JUAN XXIII, Pº Nº14 DESPUES DE C/ VICENTE ALEIXANDRE RAMIRO DE MAEZTU;439159,9;4477727,3;SI;C1/;439050,51;4477519,85;-3.7187271;40.4460998
2709;;MARQUESINA MOD XXI 4-M STD;MONCLOA-ARAVACA;MARQUES DE COMILLAS;PZA;3;ESQ. Pº JUAN XXIII;ISAC PERAL;MARQUES DE COMILLAS, PZA. Nº3 ESQ. Pº JUAN XXIII ISAC PERAL;439062;4477631,8;SI;C2/;438952,61;4477424,35;-3.7198723;40.4452323
2794;;MARQUESINA MOD XXI 4-M STD;USERA;EDUADO BARREIROS;CALLE;0;FTE Nº 13;VILLAVERDE;EDUADO BARREIROS, CALLE Nº0 FTE Nº 13 VILLAVERDE;441006;4469411,39;SI;76/;440896,56;4469203,9;-3.6961873;40.3713189
618;;MARQUESINA MOD XXI 5-M STD;LATINA;GALLUR;CALLE;0;FTE Nº 1;GTA LOS CARMENES;GALLUR, CALLE Nº0 FTE Nº 1 GTA LOS CARMENES;437698,4;4472448,7;SI;25/;437589;4472241,25;-3.7354421;40.3984396
2160;;MARQUESINA MOD XXI 4-M STD;RETIRO;ALCALDE SAINZ DE BARANDA;CALLE;40;ESQ. C/ MAIQUEZ;C/MARQUES DE CORBERA;ALCALDE SAINZ DE BARANDA,CALLE Nº40 ESQ. C/ MAIQUEZ C/MARQUES DE CORBERA;443025;4474425,2;SI;2/15/215/N8/;442915,58;4474217,7;-3.672856;40.4166267
2276;;MARQUESINA MOD XXI 5-M STD;LATINA;CAMARENA;CALLE;0;FTE Nº 320;DUQUESA PARCENT;CAMARENA, CALLE Nº0 FTE Nº 320 DUQUESA PARCENT;435781,2;4471012;SI;31/N18/;435671,81;4470804,56;-3.757887;40.3853515
629;;MARQUESINA MOD XXI 5-M STD;LATINA;CAMARENA;CALLE;0;FTE. Nº105;C/ OCAÑA;CAMARENA, CALLE Nº0 FTE. Nº105 C/ OCAÑA;435967,8;4471768,1;SI;25/N18/;435858,41;4471560,66;-3.7557649;40.3921771
5179;;MARQUESINA MOD XXI 5-M STD;LATINA;CAMARENA;CALLE;57;FTE. Nº 68;C/DUQUESA DE PARCENT;CAMARENA, CALLE Nº57 FTE. Nº 68 C/DUQUESA DE PARCENT;436011,4;4472110,7;SI;25/N18/;435902,02;4471903,26;-3.7552856;40.3952667
2274;;MARQUESINA MOD XXI 5-M STD;LATINA;CAMARENA;CALLE;207;FTE. Nº 80;C/ DUQ. DE PARCENT;CAMARENA, CALLE Nº207 FTE. Nº 80 C/ DUQ. DE PARCENT;435899,8;4471230,1;SI;31/121/N18/;435790,41;4471022,66;-3.7565118;40.3873253
4496;;MARQUESINA MOD XXI 5-M STD;CHAMBERI;BRAVO MURILLO;CALLE;55;ESQ C/ RIOS ROSAS;GTA QUEVEDO;BRAVO MURILLO, CALLE Nº55 ESQ C/ RIOS ROSAS GTA QUEVEDO;440386,1;4477232,4;SI;3/37/149/N23/;440276,7;4477024,93;-3.7042222;40.4417303
5642;;MARQUESINA MOD XXI 4-M STD;ARGANZUELA;VIRGEN DEL PUERTO;Pº;0;DESP. C/ MARMOL;GTA. SAN VICENTE;VIRGEN DEL PUERTO, Pº Nº0 DESP. C/ MARMOL GTA. SAN VICENTE;438838,8438;4473239,5;SI;36/50/;438729,44;4473032,04;-3.7220804;40.4056481
592;;MARQUESINA MOD XXI 5-M STD;LATINA;VIA CARPETANA;CALLE;0;ESQ Pº ERMITA DEL SANTO;Pº ERMITA SANTO;VIA CARPETANA, CALLE Nº0 ANT Pº ERMITA DEL SANTO Pº ERMITA SANTO;438592,7;4473216,6;SI;17/N16/;438483,3;4473009,14;-3.7249788;40.4054237
613;;MARQUESINA MOD XXI 5-M STD;LATINA;ERMITA DEL SANTO;Pº;5;-;Pº EXTREMADURA;ERMITA DEL SANTO, Pº Nº5 - Pº EXTREMADURA;438735,9;4473724,3;SI;25/;438626,5;4473516,84;-3.7233403;40.4100078
565;;MARQUESINA MOD XXI 4-M STD;CARABANCHEL;VIA CARPETANA;CALLE;145;FTE C/ DE LA LAGUNA;Pº  ERMITA DEL SANTO;VIA CARPETANA, CALLE Nº145 FTE C/ DE LA LAGUNA Pº  ERMITA DEL SANTO;437141,5;4471747,8;SI;17/;437032,1;4471540,35;-3.7419347;40.3920837
5506;;MARQUESINA MOD XXI 5-M STD;CARABANCHEL;VIA CARPETANA;CALLE;105;FTE Nº 274;Pº ERMITA SANTO;VIA CARPETANA, CALLE Nº105 FTE Nº 274 Pº ERMITA SANTO;437399,5;4472002,3;SI;17/25/N16/;437290,1;4471794,85;-3.73892;40.3943958
2198;;MARQUESINA MOD XXI 4-M STD;PUENTE VALLECAS;ENTREVIAS;AV;82;ESQ. C/ DE LA SERENA;Cº POZO TIO RAIMUNDO;ENTREVIAS, AV. Nº82 ESQ. C/ DE LA SERENA Cº POZO TIO RAIMUNDO;443639;4470226,9;SI;24/;443529,55;4470019,39;-3.6652473;40.3788478
1786;16986;MARQUESINA MOD XXI 5-M STD;FUENCARRAL;MONFORTE DE LEMOS;AV;163;-;Pº CASTELLANA;MONFORTE DE LEMOS, AV Nº163 - Pº CASTELLANA;439527,8;4481159,3;SI;126/132/137/147/602/;439418,43;4480951,86;-3.7147164;40.4770435
3240;;MARQUESINA MOD XXI 5-M STD;TETUAN;GENERAL YAGUE;CALLE;31;ESQ INFANTA MARCEDES;Pº DE LA CASTELLANA;GENERAL YAGUE, CALLE Nº31  ESQ INFANTA MARCEDES Pº DE LA CASTELLANA;440902,2;4478891,5;SI;126/;440792,81;4478684,03;-3.6982916;40.4567131
4537;;MARQUESINA MOD XXI 4-M STD;MORATALAZ;VALDEBERNARDO;CALLE;0;FTE Nº 23;C/ LUIS  HOYOS SAINZ;VALDEBERNARDO, CALLE Nº0 FTE Nº 23 C/ LUIS  HOYOS SAINZ;446478,3;4472588,2;SI;32/;446368,85;4472380,65;-3.6319998;40.4003072
1270;;MARQUESINA MOD XXI 4-M STD;MORATALAZ;PICO DE LOS ARTILLEROS;CALLE;102;-;HACIENDA PAVONE;PICO DE LOS ARTILLEROS, CALLE Nº102 - HACIENDA PAVONE;445785;4473193,4;SI;30/;445675,56;4472985,86;-3.6402209;40.4057143
839;;MARQUESINA MOD XXI 5-M STD;MORATALAZ;HACIENDA DE PAVONES;CALLE;93;ESQ DE LA CAÑADA;PZA DEL ENCUENTRO;HACIENDA DE PAVONES, CALLE Nº93 ESQ DE LA CAÑADA PZA DEL ENCUENTRO;445313,1;4472969,5;SI;20/30/100/N8/;445203,66;4472761,97;-3.6457627;40.4036665
2286;;MARQUESINA MOD XXI 4-M STD;MORATALAZ;MORATALAZ;AV;182;FTE AL Nº 187;AV DR. GARCIA TAPIA;MORATALAZ, AV Nº182 FRENTE AL Nº 187 AV DR. GARCIA TAPIA;445520,6;4473538,8;SI;32/;445411,16;4473331,27;-3.6433663;40.4088087
2517;;MARQUESINA MOD XXI 5-M STD;PUENTE VALLECAS;PIO FELIPE;CALLE;0;JTO PARQUE DE BOMBEROS;AV ALBUFERA;PIO FELIPE, CALLE Nº0 JTO PARQUE DE BOMBEROS AV ALBUFERA;444742,9;4472027,7;SI;54/141/143/N10/;444633,46;4471820,17;-3.6524;40.3951444
2516;;MARQUESINA MOD XXI 4-M REDUCIDA ;PUENTE VALLECAS;PIO FELIPE;CALLE;0;FTE PARQUE DE BOMBEROS;MORATALAZ;PIO FELIPE, CALLE Nº0 FTE PARQUE DE BOMBEROS MORATALAZ;444761,9;4471998,3;SI;54/141/143/;444652,46;4471790,77;-3.6521736;40.3948809
1077;;MARQUESINA MOD XXI 4-M STD;VICALVARO;CALAHORRA;CALLE;112;ESQ AV DAROCA;Cº Vº VICALVARO;CALAHORRA, CALLE Nº112 ESQ AV DAROCA Cº Vº VICALVARO;448088,3;4473348;SI;130/;447978,85;4473140,42;-3.6130904;40.4072538
512;;MARQUESINA MOD XXI 4-M REDUCIDA ;HORTALEZA;BACARES;CALLE;0;ESQ C/ CUEVAS ALMANZORA;CUEV. ALMANZORA;BACARES, CALLE Nº0 ANT C/ CUEVAS ALMANZORA CUEV. ALMANZORA;444056,4;4480945,6;SI;7/;443947;4480738,1;-3.6612749;40.4754359
617;;MARQUESINA MOD XXI 4-M STD;LATINA;ERMITA DEL SANTO;Pº;39;ESQ. C/SAN CONRADO;GTA PUENTE SEGOVIA;ERMITA DEL SANTO, Pº Nº39 ESQ. C/SAN CONRADO GTA PUENTE SEGOVIA;438640,1;4473304,9;SI;25/;438530,7;4473097,44;-3.7244288;40.4062226
2418;;MARQUESINA MOD XXI 5-M STD;MONCLOA-ARAVACA;JUAN DE HERRERA;AV;0;ESQ GTA. CARDENAL CISNEROS;AV. MARTIN FIERRO;JUAN DE HERRERA, AV Nº0 DESP GLTA. CARDENAL CISNEROS AV. MARTIN FIERRO;438424,5;4477023,4;SI;46/160/161/;438315,11;4476815,95;-3.7273301;40.4397046
2415;;MARQUESINA MOD XXI 5-M STD;MONCLOA-ARAVACA;JUAN DE HERRERA;AV;0;ESQ AV MARTIN FIERRO;GTA C. CISNEROS;JUAN DE HERRERA, AV Nº0 DESP AV MARTIN FIERRO GTA C. CISNEROS;438028,7;4476872,4;SI;46/U/N20/;437919,32;4476664,96;-3.7319817;40.4383149
2414;;MARQUESINA MOD XXI 4-M STD;MONCLOA-ARAVACA;MARTIN FIERRO;AV;0;ESQ C/OBISPO TREJO;AVD SENECA;MARTIN FIERRO, AV Nº0 DESP C/OBISPO TREJO AVD SENECA;438059,6;4476613,1;SI;46/160/161/N20/;437950,21;4476405,66;-3.7315922;40.4359814
1690;;MARQUESINA MOD XXI 4-M STD;MONCLOA-ARAVACA;COMPLUTENSE;AV;0;JTO FAC. CIENCIAS INFORMACION;AV PUERTA DE HIERRO;COMPLUTENSE, AV Nº0 JTO FAC. CIENCIAS INFORMACION AV PUERTA DE HIERRO;438406,8;4477654,2;SI;82/132/U/G/;438297,42;4477446,76;-3.7275999;40.4453858
3387;;MARQUESINA MOD XXI 4-M STD;TETUAN;ROSARIO PINO;CALLE;14;ESQ C/ CAPITAN HAYA;C/ORENSE;ROSARIO PINO, CALLE Nº14 ESQ C/ CAPITAN HAYA C/ORENSE;441361,6;4479503,4;SI;149/;441252,21;4479295,93;-3.6929304;40.462258
558;;MARQUESINA MOD XXI 4-M STD;CARABANCHEL;VIA CARPETANA;CALLE;53;PASADO EL CANODROMO;Pº ERMITA DEL SANTO;VIA CARPETANA, CALLE Nº53 PASADO EL CANODROMO Pº ERMITA DEL SANTO;437742,9;4472437,4;SI;17/25/N16/;437633,5;4472229,95;-3.7349166;40.3983412
2538;7620;MARQUESINA MOD XXI 5-M STD;CARABANCHEL;SANTA Mª DE LA CABEZA;Pº;0;ESQ. C/ BALEARES;PZA. FDEZ. LADREDA;SANTA Mª DE LA CABEZA, Pº Nº0 ESQ. C/ BALEARES PZA. FDEZ. LADREDA;439617,3;4471482,9;SI;55/60/E1/N17/N801/N805/N806/;439507,89;4471275,43;-3.7127401;40.3898806
1879;;MARQUESINA MOD XXI 5-M STD;CENTRO;GRAN VIA DE SAN FRANCISCO;CALLE;0;ESQ  C/ ROSARIO;PUERTA TOLEDO;GRAN VIA DE SAN FRANCISCO, CALLE Nº0 ESQ  C/ ROSARIO PUERTA TOLEDO;439533,6;4473720,6;SI;3/148/N16/;439424,2;4473513,13;-3.713939;40.4100328
459;;MARQUESINA MOD XXI 5-M STD;CHAMARTIN;RAMON Y CAJAL;AV;32;ESQ. C/ GABRIL Y GALAN;C/ ARTURO SORIA;RAMON Y CAJAL, AVD Nº32 ESQ. C/ GABRIL Y GALAN C/ ARTURO SORIA;443207,6;4478369,9;SI;43/120/;443098,19;4478162,4;-3.6710569;40.4521751
337;;MARQUESINA MOD XXI 5-M STD;CARABANCHEL;GENERAL RICARDOS;CALLE;142;DESP. C/ PEDRO DIEZ;EUGENIA MONTIJO;GENERAL RICARDOS, CALLE Nº142 DESP. C/ PEDRO DIEZ EUGENIA MONTIJO;438227,1;4471545,7;SI;34/35/118/N26/;438117,7;4471338,24;-3.7291247;40.3903444
3040;;MARQUESINA MOD XXI 5-M STD;CARABANCHEL;CAMINO VIEJO DE LEGANES;;180;-;AV ABRANTES;CAMINO VIEJO DE LEGANES Nº180 -  AV ABRANTES;437860,2;4470224;SI;118/N16/;437750,79;4470016,54;-3.7333183;40.3784105
1162;;MARQUESINA MOD XXI 5-M REDUCIDA ;CARABANCHEL;CRUCES (LAS);Cº;0;FTE Nº 25;JOAQUIN TURINA;CRUCES (LAS), CAMINO Nº0 FTE Nº 25 JOAQUIN TURINA;435561,2;4469214,6;SI;35/47/N17/;435451,8;4469007,16;-3.7602968;40.3691427
2454;;MARQUESINA MOD XXI 5-M STD;CARABANCHEL;ALISEDA;CALLE;43;FTE Nº 34;PZA LOS NAVARROS;ALISEDA, CALLE Nº43 FRET AL Nº 34 PZA LOS NAVARROS;437107,1;4469711,9;SI;47/108/118/N16/;436997,69;4469504,44;-3.7421388;40.3737407
2821;;MARQUESINA MOD XXI 4-M STD;USERA;CRISTO DE LA VICTORIA;CALLE;73;FTE Nº 94;C/DEL SANTUARIO;CRISTO DE LA VICTORIA, CALLE Nº73 FTE Nº 94 C/DEL SANTUARIO;440375,5;4470406,4;SI;78/;440266,07;4470198,92;-3.7037067;40.3802376
1952;;MARQUESINA MOD XXI 5-M STD;USERA;RAFAELA YBARRA;AV;75;-;C/ MARCELO USERA;RAFAELA YBARRA, AVD Nº75 - C/ MARCELO USERA;439678,7;4470186,7;SI;6/60/78/81/N15/;439569,28;4469979,23;-3.7118939;40.3782083
1139;;MARQUESINA MOD XXI 5-M STD;VILLAVERDE;VERBENA DE LA PALOMA;AV;8;FTE Nº 5;CIUDAD ANGELES;VERBENA DE LA PALOMA, AVD Nº8 FTE Nº 5 CIUDAD ANGELES;441058,9;4468214,1;SI;18/86/N14/;440949,45;4468006,61;-3.6954535;40.3605368
1142;;MARQUESINA MOD XXI 5-M STD;VILLAVERDE;VERBENA DE LA PALOMA;AV;29;DESP C/LA DEL SOTO DEL PARRAL;CTRA ANDALUCIA;VERBENA DE LA PALOMA, AVD Nº29 DESP C/LA DEL SOTO DEL PARRAL CTRA ANDALUCIA;441017,1;4467935,1;SI;18/86/;440907,64;4467727,61;-3.69592;40.3580204
3758;;MARQUESINA MOD XXI 4-M STD;VICALVARO;VICALVARADA;PZA;0;ANT Pº ARTILLEROS;Pº ARTILLEROS;VICALVARADA, PZA Nº0 ANTES Pº ARTILLEROS Pº ARTILLEROS;448355,1;4473562,4;SI;4/100/106/N7/;448245,65;4473354,82;-3.6099637;40.4092019
819;;MARQUESINA MOD XXI 4-M STD;RETIRO;NIÑO JESUS (DEL);PZA;1;ANT MENENDEZ PELAYO;C/MENENDEZ PELAYO;NIÑO JESUS (DEL), PZA Nº1 ANTES MENENDEZ PELAYO C/MENENDEZ PELAYO;442782,4;4473836,3;SI;20/;442672,98;4473628,8;-3.6756623;40.4113049
1960;;MARQUESINA MOD XXI 5-M STD;USERA;GUETARIA;CALLE;0;ESQ C/ ALZOLA;AV POBLADOS;GUETARIA, CALLE Nº0 DESP C/ ALZOLA AV POBLADOS;439364,2;4469102;SI;60/;439254,77;4468894,53;-3.7154953;40.3684139
2869;;MARQUESINA MOD XXI 5-M STD;USERA;EXPROPIACION;CALLE;0;ESQ GRAN AVENIDA;GRAN AVENIDA;EXPROPIACION, CALLE Nº0 ANT GRAN AVENIDA GRAN AVENIDA;440265,8;4469337,6;SI;81/;440156,36;4469130,12;-3.7048987;40.3706014
2825;;MARQUESINA MOD XXI 5-M STD;USERA;UNIDAD;CALLE;0;ESQ C/ RAFAELA YBARRA;C/ DEVA;UNIDAD, CALLE Nº0 ANT C/ RAFAELA YBARRA C/ DEVA;439663;4469270,8;SI;78/81/116/;439553,57;4469063,32;-3.7119921;40.3699561
522;;MARQUESINA MOD XXI 5-M REDUCIDA;CHAMBERI;FERNANDEZ DE LOS RIOS;CALLE;37;ESQ C/ VALLEHERMOSO 25MTS.;BRAVO MURILLO;FERNANDEZ DE LOS RIOS, CALLE Nº37 ESQ C/ VALLEHERMOSO 25MTS. BRAVO MURILLO;439972,5;4476497,3;SI;16/61/;439863,1;4476289,84;-3.7090292;40.4350785
3228;;MARQUESINA MOD XXI 5-M STD;FUENCARRAL;MORALZARZAL;CALLE;0;ESQ C/ ALFREDO MARQUERIE;ALFREDO MARQUER;MORALZARZAL, CALLE Nº0  ANT C/ ALFREDO MARQUERIE ALFREDO MARQUER;440456,3;4482259;SI;124/133/N23/  ;440346,93;4482051,55;-3.7038666;40.4870172
2563;;MARQUESINA MOD XXI 4-M STD;PUENTE VALLECAS;CARLOS MARTIN ALVAREZ;CALLE;6;ESQ. C/ARROYO DEL OLIVAR;AV. SAN DIEGO;CARLOS MARTIN ALVAREZ, CALLE Nº6 ESQ. C/ARROYO DEL OLIVAR AV. SAN DIEGO;443941,5;4471632,1;SI;57/N10/;443832,06;4471424,59;-3.6618077;40.3915272
2523;;MARQUESINA MOD XXI 5-M STD;PUENTE VALLECAS;PABLO NERUDA;AV;7;DESP C/ LOS ANDALUCES;FUENTE CARRANTONA;PABLO NERUDA, AVD Nº7 DESP C/ LOS ANDALUCES FUENTE CARRANTONA;445692,7;4471720,2;SI;54/142/144/N10/;445583,25;4471512,66;-3.6411828;40.3924368
3251;;MARQUESINA MOD XXI 5-M STD;CHAMARTIN;BURGOS;AV;9;DESP AV PIO XII;DUQUE DE PASTRANA;BURGOS, AV. Nº9 DESP AV PIO XII DUQUE DE PASTRANA;442808,2;4480592,9;SI;129/174/;442698,8;4480385,42;-3.6759674;40.4721736
2150;;MARQUESINA MOD XXI 5-M REDUCIDA ;CHAMARTIN;BURGOS;AV;4;ESQ C/ MARQUES TORROJA;AV SAN LUIS;BURGOS, AV. Nº4 ESQ C/ MARQUES TORROJA AV SAN LUIS;442789,9;4480392,1;SI;14/129/;442680,5;4480184,62;-3.6761652;40.4703635
1291;;MARQUESINA MOD XXI 5-M STD;HORTALEZA;GUADALAJARA;CALLE;7;FTE Nº 24;C/ ALCALA;GUADALAJARA, CALLE Nº7 FTE Nº 24 C/ ALCALA;447958,7;4478306,2;SI;105/115/153/;447849,27;4478098,64;-3.6150243;40.4519124
2070;;MARQUESINA MOD XXI 4-M REDUCIDA;PUENTE VALLECAS;PALOMERAS;AV;108;ESQ AVD BUENOS AIRES;AVD PABLO NERUDA;PALOMERAS, AVD Nº108 ESQ AVD BUENOS AIRES AVD PABLO NERUDA;444719,4;4471097,5;SI;10/N10/;444609,95;4470889,97;-3.6525961;40.3867631
2078;;MARQUESINA MOD XXI 4-M STD;PUENTE VALLECAS;EXTREMEÑOS (DE LOS);CALLE;0;ANT AV PABLO NERUDA;AV PABLO NERUDA;EXTREMEÑOS (DE LOS), CALLE Nº0 ANTES AV PABLO NERUDA  AV PABLO NERUDA;445270;4470963,4;SI;10/;445160,55;4470755,86;-3.6460979;40.3855914
2084;;MARQUESINA MOD XXI 4-M STD;PUENTE VALLECAS;VILLALOBOS;CALLE;7;DESP C/ LEONESES;AV ALBUFERA;VILLALOBOS, CALLE Nº7 DESP C/ LEONESES AV ALBUFERA;445282,2;4470604,8;SI;10/144/;445172,75;4470397,26;-3.6459233;40.3823617
706;;MARQUESINA MOD XXI 5-M STD;CIUDAD LINEAL;TORRELAGUNA;CALLE;0;ANT C/ RAFAEL BERGAMIN;AV BADAJOZ;TORRELAGUNA, CALLE Nº0 ANTES C/ RAFAEL BERGAMIN AV BADAJOZ;444169,9;4478239,7;SI;53/;444060,49;4478032,19;-3.6596975;40.4510674
7077;7077;MARQUESINA MOD XXI 5-M REDUCIDA ;CIUDAD LINEAL;HERMANOS GARCIA NOBLEJAS;CALLE;0;FTE Nº 11;PZA. ALSACIA;HERMANOS GARCIA NOBLEJAS, CALLE Nº0 FTE Nº 11 PZA. ALSACIA;446047,7;4476635,5;SI;288/289/286/N203/;445938,27;4476427,96;-3.6374176;40.4367399
1273;;MARQUESINA MOD XXI 5-M STD;MORATALAZ;CORREG. LIC. ANTONIO MENA;PZA;0;ESQ C/ PICO ARTILLEROS;PICO ARTILLEROS;CORREG. LIC. ANTONIO MENA, PZA Nº0 ESQ C/ PICO ARTILLEROS PICO ARTILLEROS;445711;4473616,2;SI;30/32/;445601,56;4473408,66;-3.641129;40.4095183
1408;;MARQUESINA MOD XXI 5-M REDUCIDA;RETIRO;CIUDAD DE BARCELONA;AV;180;-;-;CIUDAD DE BARCELONA, AV Nº180 - -;442791,9;4472741,4;SI;24/37/;442682,47;4472533,9;-3.6754519;40.4014421
1790;;MARQUESINA MOD XXI 4-M STD;VILLAVERDE;ALCOCER;CALLE;4;DESP C/ ESCORIAZA  (1ª MARQ);C/ VILLALONSO;ALCOCER, CALLE Nº4 DESP C/ ESCORIAZA  (1ª MARQ) C/ VILLALONSO;441129;4467173,2;SI;REFUGIO;441019,54;4466965,71;-3.6945319;40.3511647
3869;;MARQUESINA MOD XXI 4-M STD;FUENCARRAL;CAMINO DE SANTIAGO;AV;0;FTE Nº 21;GTA MONTE DEL GOZO;CAMINO DE SANTIAGO, AV. Nº0 FTE Nº 21 GTA MONTE DEL GOZO;442963,6;4483613,1;SI;172/176/                         ;442854,22;4483405,63;-3.6744064;40.4993916
594;;MARQUESINA MOD XXI 5-M STD;ARGANZUELA;TOLEDO;CALLE;120;ESQ. PUERTA TOLEDO;GTA PIRAMIDES;TOLEDO, CALLE Nº120 ESQ. PUERTA TOLEDO GTA PIRAMIDES;439684,7;4473278,6;SI;18/23/35/N26/;439575,29;4473071,13;-3.7121165;40.4060621
2355;;MARQUESINA MOD XXI 5-M STD;CENTRO;TOLEDO;RDA;0;FTE C/ SANTOCILDES (2ª MARQ);PUERTA TOLEDO;TOLEDO, RONDA Nº0 FTE C/ SANTOCILDES (2ª MARQ) PUERTA TOLEDO;440377,3;4473193,3;SI;C1/;440267,89;4472985,83;-3.7039466;40.4053436
2206;;MARQUESINA MOD XXI 5-M STD;PUENTE VALLECAS;ANDALUCES DEL POZO;CALLE;0;ESQ C/ ESTEBAN CARROS;ESTEBAN CARROS;ANDALUCES DEL POZO, CALLE Nº0 ANT C/ ESTEBAN CARROS ESTEBAN CARROS;444144,2;4469392,5;SI;102/;444034,74;4469184,98;-3.659223;40.371365
1882;;MARQUESINA MOD XXI 4-M STD;CENTRO;GRAN VIA DE SAN FRANCISCO;CALLE;8;JTO C/ DEL AGUILA;C/ BAILEN;GRAN VIA DE SAN FRANCISCO, CALLE Nº8 JTO C/ DEL AGUILA C/ BAILEN;439598,7;4473604,7;SI;3/60/148/;439489,29;4473397,23;-3.7131609;40.4089935
844;;MARQUESINA MOD XXI 4-M REDUCIDA ;MORATALAZ;ENCOMIENDA DE PALACIOS;CALLE;0;ESQ C/ ARROYO DE FONTARRON;ARROYO FONTARRO;ENCOMIENDA DE PALACIOS, CALLE Nº0 ESQ C/ ARROYO DE FONTARRON ARROYO FONTARRO;445202,2;4472616,3;SI;8/20/;445092,76;4472408,77;-3.647039;40.4004773
545;;MARQUESINA MOD XXI 5-M STD;CENTRO;TOLEDO;CALLE;54;ESQ. PZA. DE LA CEBADA;GTA PIRAMIDES;TOLEDO, CALLE Nº54 ESQ. PZA. DE LA CEBADA GTA PIRAMIDES;440014,3;4473884;SI;17/18/23/35/N26/;439904,89;4473676,53;-3.7082895;40.4115397
2588;;MARQUESINA MOD XXI 4-M REDUCIDA;CENTRO;TOLEDO;CALLE;0;ESQ. C/ LA CEBADA;GTA PIRAMIDES;TOLEDO, CALLE Nº0 (2ª MAR) ESQ. C/ LA CEBADA GTA PIRAMIDES;439958,2;4473797,6;SI;60/;439848,79;4473590,13;-3.7089425;40.4107573
3005;;MARQUESINA MOD XXI 4-M STD;CIUDAD LINEAL;EMILIO FERRARI;CALLE;45;DESP C/ VITAL AZA;HNOS. GCIA. NOBLEJAS;EMILIO FERRARI, CALLE Nº45 DESP C/ VITAL AZA HNOS. GCIA. NOBLEJAS;445651,8;4476158,6;SI;109/;445542,37;4475951,07;-3.6420443;40.432418
116;;MARQUESINA MOD XXI 5-M STD;CHAMARTIN;PIO XII;AV;47;ESQ C/ COMANDANTE FRANCO A 60M.;PPE. VERGARA;PIO XII, AVD Nº47 ESQ C/ COMANDANTE FRANCO A 60M. PPE. VERGARA;442824,2;4479816,7;SI;16/29/150/N1/;442714,8;4479609,21;-3.6757086;40.4651823
915;;MARQUESINA MOD XXI 5-M STD;ARGANZUELA;TOLEDO;CALLE;143;ESQ C/ SAN ISIDRO DE SEVILLA;PZA MAYOR;TOLEDO, CALLE Nº143 ESQ C/ SAN ISIDRO DE SEVILLA PZA MAYOR;439652,4;4473092,5;SI;18/23/35/N26/;439542,99;4472885,03;-3.7124794;40.4043833
917;;MARQUESINA MOD XXI 5-M STD;ARGANZUELA;TOLEDO;CALLE;0;ESQ GTA. PIRAMIDES;PUERTA TOLEDO;TOLEDO, CALLE Nº0 ESQ GTA. PIRAMIDES PUERTA TOLEDO;439529,9;4472768,1;SI;18/23/35/N26/CT1/;439420,49;4472560,63;-3.7138921;40.401452
914;;MARQUESINA MOD XXI 5-M STD;ARGANZUELA;TOLEDO;CALLE;140;PROX. C/SANTA CASILDA;GTA PIRAMIDES;TOLEDO, CALLE Nº140 PROX. C/SANTA CASILDA GTA PIRAMIDES;439594,4;4473033,7;SI;18/23/35/N26/;439484,99;4472826,23;-3.7131573;40.4038493
1123;;MARQUESINA MOD XXI 4-M STD;ARGANZUELA;CHOPERA (DE LA);Pº;45;ESQ PZA GRAL MATARO;Pº YESERIAS;CHOPERA (DE LA), Pº Nº45 ESQ PZA GRAL MATARO Pº YESERIAS;440878,3;4471851,8;SI;6/18/78/148/N12/N14/;440768,88;4471644,32;-3.697918;40.3932944
2310;;MARQUESINA MOD XXI 5-M STD;ARGANZUELA;IMPERIAL;Pº;0;FTE Nº 50;Pº PONTONES;IMPERIAL, Pº Nº0 FTE Nº 50  Pº PONTONES;439444,4;4472794,8;SI;36/62/;439334,99;4472587,33;-3.7149021;40.4016863
3913;;MARQUESINA MOD XXI 5-M STD;ARGANZUELA;MENDEZ ALVARO;CALLE;0;JTO PZA AMANECER DE MENDEZ ALVARO;M - 30;MENDEZ ALVARO, CALLE Nº0 JTO PZA AMANECER DE MENDEZ ALVARO M - 30;442003,7;4472518,5;SI;102/152/N11/;441894,28;4472311,01;-3.6847192;40.3993796
5396;16888;MARQUESINA MOD XXI 5-M STD;HORTALEZA;ALCALDE MORENO TORRES;PZA;9;ANT AV FRANCISCO PI Y MARGAL;FRANCISCO PI Y MARGA;ALCALDE MORENO TORRES, PZA. Nº9 ANTES AV FRANCISCO PI Y MARGAL FRANCISCO PI Y MARGA;444543,7;4482313,2;SI;172/174/152B/153B/;444434,31;4482105,7;-3.6556461;40.4877886
3659;;MARQUESINA MOD XXI 4-M STD;CIUDAD LINEAL;FERNANDEZ CARO;CALLE;12;DESP C/ GIL DE ONTAÑON;C/ ARTURO SORIA;FERNANDEZ CARO, CALLE Nº12 DESP C/ GIL DE ONTAÑON C/ ARTURO SORIA;445207,6;4477235,3;SI;21/;445098,18;4477027,77;-3.6473739;40.4420883
1969;;MARQUESINA MOD XXI 5-M STD;ARGANZUELA;MENDEZ ALVARO;CALLE;64;JTO METRO M.ALVARO;M 30;MENDEZ ALVARO, CALLE Nº64 JUNTO METRO M.ALVARO M 30;442314,6;4472148,7;SI;102/152/N11/;442205,17;4471941,21;-3.6810224;40.3960699
1968;;MARQUESINA MOD XXI 5-M STD;ARGANZUELA;MENDEZ ALVARO;CALLE;57;ANT C/ ALPEDRETE;GTA CARLOS V;MENDEZ ALVARO, CALLE Nº57 ANTES C/ ALPEDRETE GTA CARLOS V;442176,5;4472362,2;SI;8/102/152/N11/;442067,08;4472154,71;-3.6826689;40.3979836
791;;MARQUESINA MOD XXI 4-M REDUCIDA;SALAMANCA;MARIA DE MOLINA;CALLE;54;ESQ. PRINC. VERGARA;AVDA. AMERICA;MARIA DE MOLINA, CALLE Nº54 ESQ. PRINC. VERGARA AVDA. AMERICA;442454,3;4476733,1;SI;12/N4/;442344,89;4476525,61;-3.6797916;40.4373782
1283;10837;MARQUESINA MOD XXI 5-M REDUCIDA;CHAMARTIN;AMERICA;AV;0;DESPUÉS M-30;MARIA DE MOLINA;AMERICA, AV Nº0 DESPUÉS M-30 MARIA DE MOLINA;443699,6;4477371,1;SI;114/115/N4/222/223/224/224A/226/227/229/281/282/283/284/N202/VAC044;443590,18;4477163,59;-3.6651664;40.4432108
2779;;MARQUESINA MOD XXI 5-M STD;SALAMANCA;TOREROS (DE LOS);AV;45;ESQ C/ RAFAELA BONILLA;C/ FCO. SILVELA;TOREROS (DE LOS), AVD Nº45 ESQ C/ RAFAELA BONILLA C/ FCO. SILVELA;443528,9;4476167,6;SI;74/;443419,48;4475960,1;-3.667072;40.4323576
1491;;MARQUESINA MOD XXI 5-M REDUCIDA ;TETUAN;SINESIO DELGADO;CALLE;12;FTE HOSPITAL DEL REY;Pº CASTELLANA;SINESIO DELGADO, CALLE Nº12 FTE HOSPITAL DEL REY Pº CASTELLANA;441457,1;4480868,8;SI;147/;441347,71;4480661,34;-3.6919303;40.4745649
766;;MARQUESINA MOD XXI 5-M REDUCIDA ;CIUDAD LINEAL;JOSE DEL HIERRO;CALLE;0;ESQ C/ VIRGEN SAGRARIO;C/ARTURO SORIA;JOSE DEL HIERRO, CALLE Nº0 ANT C/ VIRGEN SAGRARIO C/ARTURO SORIA;444989,3;4476601,1;SI;48/146/;444879,87;4476393,58;-3.649893;40.4363607
445;;MARQUESINA MOD XXI 5-M STD;CHAMARTIN;SERRANO;CALLE;111;-;PZA INDEPENDENC;SERRANO, CALLE Nº111 - PZA INDEPENDENC;441918,4;4477102,6;SI;16/19/51/;441808,99;4476895,12;-3.6861437;40.4406696
444;;MARQUESINA MOD XXI 5-M STD;CHAMARTIN;SERRANO;CALLE;127;-;PZA INDEPENDENC;SERRANO, CALLE Nº127 -  PZA INDEPENDENC;441932,4;4477294,7;SI;16/19/51/N1/CT2/;441822,99;4477087,22;-3.6859962;40.4424011
441;;MARQUESINA MOD XXI 4-M STD;CHAMARTIN;SERRANO;CALLE;183;-;PZA INDEPENDENC;SERRANO, CALLE Nº183 - PZA INDEPENDENC;442227,4;4478129,6;SI;7/51/N1/;442117,99;4477922,12;-3.682594;40.4499429
765;;MARQUESINA MOD XXI 5-M STD;CIUDAD LINEAL;JOSE DEL HIERRO;CALLE;0;FTE C/ VIRGEN DE LLUC;AVD DONOSTIARRA;JOSE DEL HIERRO, CALLE Nº0 FTE C/ VIRGEN DE LLUC AVD DONOSTIARRA;444753,8;4476467,5;SI;21/;444644,37;4476259,98;-3.6526578;40.4351415
2509;;MARQUESINA MOD XXI 5-M REDUCIDA ;CHAMARTIN;TORPEDERO TUCUMAN;CALLE;1;ESQ. ALFONSO XIII;ALFONSO XIII;TORPEDERO TUCUMAN, CALLE Nº1 ESQ. ALFONSO XIII ALFONSO XIII;442976,5;4479302,6;SI;52/;442867,1;4479095,11;-3.673866;40.4605615
282;;MARQUESINA MOD XXI 5-M STD;CHAMBERI;FRANCISCO DE ROJAS;CALLE;13;-;C/ SAGASTA;FRANCISCO DE ROJAS, CALLE Nº13 - C/ SAGASTA;440735,8;4475949,7;SI;40/;440626,39;4475742,23;-3.6999793;40.4302002
136;;MARQUESINA MOD XXI 4-M STD;CIUDAD LINEAL;ARTURO SORIA;CALLE;324;ESQ C/ DE LA CULTURA;M-40;ARTURO SORIA, CALLE Nº324 ESQ C/ DE LA CULTURA M-40;443456,8;4481308,9;SI;29/125/129/150/;443347,41;4481101,41;-3.6683804;40.4786681
2512;;MARQUESINA MOD XXI 5-M STD;CHAMARTIN;PUERTO RICO;CALLE;21;ESQ. URUGUAY;RAMON Y CAJAL;PUERTO RICO, CALLE Nº21 ESQ. URUGUAY RAMON Y CAJAL;442944,5;4478668,8;SI;52/;442835,09;4478461,31;-3.6741864;40.4548498
1041;;MARQUESINA MOD XXI 4-M STD;VILLA DE VALLECAS;MEDITERRANEO;AV;0;ANT. C/ VIRGEN DE LAS VIÑAS;C/ FUENTESPINA;MEDITERRANEO, AV Nº0 ANT. C/ VIRGEN DE LAS VIÑAS C/ FUENTESPINA;448818,9;4470569,8;SI;58/63/;448709,43;4470362,21;-3.6042569;40.3822711
1044;;MARQUESINA MOD XXI 4-M STD;VILLA DE VALLECAS;SANTA EUGENIA;AV;107;DESP C/ VIRGEN DE LAS VIÑAS;Cº DE VASARES;SANTA EUGENIA, AVD Nº107 DESP C/ VIRGEN DE LAS VIÑAS Cº DE VASARES;448386,9;4470383;SI;58/63/;448277,43;4470175,41;-3.6093309;40.3805616
8366;8366;MARQUESINA MOD XXI 5-M STD;RETIRO;MEDITERRANEO;AV;0;DESP C/ FEDERICO MORENO TORROBA;VALENCIA;MEDITERRANEO, AV Nº0 DESP C/ FEDERICO MORENO TORROBA VALENCIA;443443,1;4473284,6;SI;341/;443333,67;4473077,09;-3.6678267;40.4063801
826;;MARQUESINA MOD XXI 5-M STD;MORATALAZ;VINATEROS;Cº;0;FTE ALCAMPO;C/ PICO ARTILLEROS;VINATEROS, CAMINO Nº0 FTE ALCAMPO C/ PICO ARTILLEROS;444089,7;4473753,4;SI;20/30/32/N8/;443980,27;4473545,89;-3.6602481;40.410647
823;;MARQUESINA MOD XXI 4-M REDUCIDA;RETIRO;ASTROS (DE LOS);CALLE;5;CRUZ DEL SUR;DOCTOR ESQUERDO;ASTROS (DE LOS), CALLE Nº5 (2ª MAR) CRUZ DEL SUR DOCTOR ESQUERDO;443380,4;4473848;SI;20/30/N8/;443270,97;4473640,5;-3.6686158;40.4114513
5507;;MARQUESINA MOD XXI 5-M STD;ARGANZUELA;TOLEDO;CALLE;174;PROX. GTA PIRAMIDES.;GTA PIRAMIDES;TOLEDO, CALLE Nº174 PROX. GTA PIRAMIDES. GTA PIRAMIDES;439517,4;4472825,5;SI;18/;439407,99;4472618,03;-3.7140448;40.4019682
2766;;MARQUESINA MOD XXI 5-M STD;HORTALEZA;CANILLAS;CTRA;99;ESQ C/JAVIER DEL QUINTO;C/LOPEZ DE HOYOS;CANILLAS, CTRA Nº99 ESQ C/JAVIER DEL QUINTO C/LOPEZ DE HOYOS;445711,2;4479776,8;SI;73/N3/;445601,79;4479569,28;-3.6416537;40.4650166
1885;;MARQUESINA MOD XXI 5-M REDUCIDA;ARGANZUELA;PUERTA DE TOLEDO;GTA;0;ENTRE C/ TOLEDO-Pº OLMOS;RONDA TOLEDO;PUERTA DE TOLEDO, GTA Nº0 ENTRE C/ TOLEDO-Pº OLMOS RONDA TOLEDO;439739,4;4473299,8;SI;3/;439629,99;4473092,33;-3.7114739;40.406257
2357;;MARQUESINA MOD XXI 4-M STD;CENTRO;TOLEDO;RDA;3;DESP RIVERA CURTIDORES;PUERTA DE TOLEDO;TOLEDO, RONDA Nº3 DESP RIVERA CURTIDORES PUERTA DE TOLEDO;440060,9;4473269,7;SI;41/60/148/C1/;439951,49;4473062,23;-3.7076824;40.4060091
2133;;MARQUESINA MOD XXI 4-M REDUCIDA ;CHAMARTIN;HABANA;Pº;56;ESQ. PZA. SAGRADOS CORAZONES;C/ MATEO INURRIA;HABANA, Pº Nº56 ESQ. PZA. SAGRADOS CORAZONES C/ MATEO INURRIA;441918,8;4478281,8;SI;14/;441809,39;4478074,32;-3.686247;40.4512924
453;;MARQUESINA MOD XXI 4-M STD;CHAMARTIN;CONCHA ESPINA;AV;18;ESQ. PZA. SAGRADOS CORAZONES;AV. RAMON Y CAJAL;CONCHA ESPINA, AV Nº18 ESQ. PZA. SAGRADOS CORAZONES AV. RAMON Y CAJAL;442006,1;4478326,8;SI;43/120/;441896,69;4478119,32;-3.6852216;40.4517039
96;;MARQUESINA MOD XXI 5-M STD;CHAMARTIN;CONCHA ESPINA;AV;0;FTE.14;Pº DE LA CASTELLANA;CONCHA ESPINA, AV Nº0 FTE.14 Pº DE LA CASTELLANA;441885,7;4478358,5;SI;14/150/;441776,3;4478151,02;-3.6866442;40.451981
3798;;MARQUESINA MOD XXI 4-M STD;MONCLOA-ARAVACA;EL BARRIAL;;0;JTO ESTACION RENFE;N - VI;EL BARRIAL Nº0 JTO ESTACION RENFE N - VI;431537,1;4479851,1;SI;162/;431427,76;4479643,74;-3.8088373;40.4646384
3774;;MARQUESINA MOD XXI 4-M STD;FUENCARRAL;CAMINO DE SANTIAGO;AV;0;ANT C/SAN JUAN DE ORTEGA;C/CASTIELLO DE JACA;CAMINO DE SANTIAGO, AV. Nº0 ANTES C/SAN JUAN DE ORTEGA C/CASTIELLO DE JACA;443033,2;4484096,1;SI;172/                    ;442923,82;4483888,63;-3.6736286;40.5037475
300;;MARQUESINA MOD XXI 5-M REDUCIDA;CHAMARTIN;COSTA RICA;CALLE;30;ESQ C/ VICTOR DE LA SERNA;M-30;COSTA RICA, CALLE Nº30 ESQ C/ VICTOR DE LA SERNA M-30;443113,9;4479057,2;SI;7/11/40/87/;443004,49;4478849,71;-3.6722236;40.4583603
807;;MARQUESINA MOD XXI 5-M STD;CHAMBERI;JOSE ABASCAL;CALLE;2;ESQ C/ BRAVO MURILLO;Pº DE LA CASTELLANA;JOSE ABASCAL, CALLE Nº2 ESQ C/ BRAVO MURILLO Pº DE LA CASTELLANA;440417,2;4476881,3;SI;3/12/;440307,8;4476673,83;-3.7038225;40.4385697
84;;MARQUESINA MOD XXI 5-M STD;CENTRO;ATOCHA;RDA;30;-;GTA EMBAJADORES;ATOCHA, RONDA Nº30 - GTA EMBAJADORES;440830,5;4473286,9;SI;27/34/36/41/119/C1/N12/N15/N17/;440721,09;4473079,42;-3.6986147;40.4062191
978;7195;MARQUESINA MOD XXI 5-M STD;SAN BLAS;EMILIO MUÑOZ;CALLE;2;ESQ C/ HNOS. GARCIA NOBLEJAS;PZA CRONOS;EMILIO MUÑOZ, CALLE Nº2 ESQ C/ HNOS. GARCIA NOBLEJAS PZA CRONOS;446537,9;4475917,7;SI;28/286/288/289/;446428,46;4475710,15;-3.6315778;40.4303051
2409;;MARQUESINA MOD XXI 5-M STD;MONCLOA-ARAVACA;VALLADOLID;AV;0;FTE Nº 61;PTE. FRANCESES;VALLADOLID, AVD Nº0 FTE Nº 61 PTE. FRANCESES;438026,5;4476125,2;SI;46/;437917,11;4475917,76;-3.7319348;40.4315837
2384;;MARQUESINA MOD XXI 4-M STD;TETUAN;GENERAL PERON;AV;38;FTE C/ CAPITAN HAYA;Pº CASTELLANA;GENERAL PERON, AV. Nº38 FTE C/ CAPITAN HAYA Pº CASTELLANA;441354,7;4478375,9;SI;43/;441245,3;4478168,43;-3.6929076;40.4521005
1419;;MARQUESINA MOD XXI 5-M REDUCIDA;CHAMBERI;BRAVO MURILLO;CALLE;91;ESQ C/ VIRGEN DE NIEVA;GTA QUEVEDO;BRAVO MURILLO, CALLE Nº91 ESQ C/ VIRGEN DE NIEVA GTA QUEVEDO;440400,5;4477666,5;SI;3/45/149/N23/;440291,1;4477459,03;-3.7040932;40.4456419
1575;;MARQUESINA MOD XXI 5-M STD;TETUAN;FRANCOS RODRIGUEZ;CALLE;72;ESQ C/ GUADALIX;ANTONIO MACHADO;FRANCOS RODRIGUEZ, CALLE Nº72 ESQ C/ GUADALIX ANTONIO MACHADO;439980,2;4478936,9;SI;64/126/128/;439870,81;4478729,44;-3.7091692;40.457056
1573;;MARQUESINA MOD XXI 5-M STD;TETUAN;FRANCOS RODRIGUEZ;CALLE;42;ESQ. C/DE LAS MARGARITAS.;ANTONIO MACHADO;FRANCOS RODRIGUEZ, CALLE Nº42 ESQ. C/DE LAS MARGARITAS. ANTONIO MACHADO;440292,9;4478887,1;SI;64/126/128/;440183,51;4478679,64;-3.7054768;40.45663
1609;;MARQUESINA MOD XXI 4-M STD;FUENCARRAL;PEDRO RICO;CALLE;0;ESQ C/ JULIO PALACIOS;JULIO PALACIOS;PEDRO RICO, CALLE Nº0 ESQ C/ JULIO PALACIOS JULIO PALACIOS;441273;4482015,8;SI;67/;441163,62;4481808,34;-3.6942083;40.4848845
2010;;MARQUESINA MOD XXI 4-M STD;CHAMARTIN;LOPEZ DE HOYOS;CALLE;0;ANT C/ PRINCIPE DE VERGARA;C/ MARIA DE MOLINA;LOPEZ DE HOYOS, CALLE Nº0 ANTES C/ PRINCIPE DE VERGARA C/ MARIA DE MOLINA;442602,5;4477223,7;SI;9/73/N2/;442493,09;4477016,21;-3.6780888;40.441808
2591;;MARQUESINA MOD XXI 4-M STD;ARGANZUELA;EMBAJADORES;CALLE;76;DESP GTA. EMBAJADORES;BEATA Mª JESUS;EMBAJADORES, CALLE Nº76 DESPUÉS DE GTA. EMBAJADORES BEATA Mª JESUS;440533,1;4473071,3;SI;60/148/E1/N17/;440423,69;4472863,83;-3.7020992;40.4042558
2330;;MARQUESINA MOD XXI 5-M REDUCIDA;CIUDAD LINEAL;ALCALA;CALLE;278;ESQ C/ MATEO GARCIA 20 M.;AV. ARAGON;ALCALA, CALLE Nº278 ESQ C/ MATEO GARCIA 20 M. AV. ARAGON;444723,7;4476160;SI;38/N5/;444614,27;4475952,48;-3.6529859;40.4323694
1329;;MARQUESINA MOD XXI 5-M REDUCIDA;MONCLOA-ARAVACA;MELENDEZ VALDES;CALLE;0;ESQ ARCIPRESTE DE HITA (3ª MQ);C/ PRINCESA;MELENDEZ VALDES, CALLE Nº0 ESQ ARCIPRESTE DE HITA (3ª MQ) C/ PRINCESA;439248,6;4476300,8;SI;132/;439139,21;4476093,34;-3.7175446;40.4332557
2022;;MARQUESINA MOD XXI 5-M STD;CHAMARTIN;PADRE CLARET;CALLE;0;ESQ. RAMON Y CAJAL;RAMON Y CAJAL;PADRE CLARET, CALLE Nº0 ESQ.RAMON Y CAJAL RAMON Y CAJAL;443688,6;4478364,6;SI;9/72/73/N2/;443579,19;4478157,1;-3.6653843;40.4521601
867;;MARQUESINA MOD XXI 5-M STD;MONCLOA-ARAVACA;RIBERA DEL MANZANARES;CALLE;0;FTE Nº 149;C/ SANTA FE;RIBERA DEL MANZANARES, CALLE Nº0 FTE Nº 149 C/ SANTA FE;437788,4;4476036,5;SI;41/75/;437679,01;4475829,06;-3.734733;40.4307668
1855;;MARQUESINA MOD XXI 5-M STD;TETUAN;PRESIDENTE CARMONA;AV;12;ESQ PZA DE SAN AMARO;GENERAL YAGUE;PRESIDENTE CARMONA, AVD Nº12 ESQ PZA DE SAN AMARO GENERAL YAGUE;441010,5;4478692,6;SI;3/;440901,1;4478485,13;-3.696996;40.4549291
781;;MARQUESINA MOD XXI 4-M STD;SALAMANCA;MARQUES DE ZAFRA;Pº;9;ESQ. MARQUES DE MONDEJAR;DOCTOR ESQUERDO;MARQUES DE ZAFRA, Pº Nº9 ESQ. MARQUES DE MONDEJAR DOCTOR ESQUERDO;443510,5;4475535,1;SI;12/;443401,08;4475327,6;-3.6672326;40.4266585
586;;MARQUESINA MOD XXI 5-M STD;LATINA;GENERAL ROMERO BASART;CALLE;0;ESQ C/ GENERAL FANJUL;C/ RAFAEL FINAT;GENERAL ROMERO BASART, CALLE Nº0 ESQ C/ GENERAL FANJUL C/ RAFAEL FINAT;434275,8;4470628,8;SI;139/;434166,42;4470421,37;-3.7755818;40.3817819
1904;;MARQUESINA MOD XXI 4-M STD;TETUAN;GENERAL MOSCARDO;CALLE;20;C/ DE LA BASILICA;C/ GRAL. PERON;GENERAL MOSCARDO, CALLE Nº20 C/ DE LA BASILICA C/ GRAL. PERON;441022,4;4478037,8;SI;5/149/;440913;4477830,33;-3.6967947;40.4490312
438;;MARQUESINA MOD XXI 5-M STD;CHAMARTIN;SERRANO;CALLE;215;ESQ C/VICTOR ANDRES BELAUNDE;PZA  INDEPENDENCIA;SERRANO, CALLE Nº215 ESQ C/VICTOR ANDRES BELAUNDE PZA  INDEPENDENCIA;442565,9;4478602;SI;51/N1/;442456,49;4478394,51;-3.6786452;40.4542219
2758;;MARQUESINA MOD XXI 4-M REDUCIDA;HORTALEZA;CANILLAS;CTRA;0;ESQ C/ RICARDO SAN JUAN;LOPEZ DE HOYOS;CANILLAS, CTRA Nº0 ESQ C/ RICARDO SAN JUAN LOPEZ DE HOYOS;444716,6;4479637,9;SI;73/N3/;444607,19;4479430,39;-3.6533727;40.4636997
129;17221;MARQUESINA MOD XXI 5-M REDUCIDA ;CIUDAD LINEAL;SAN LUIS;AV;0;ESQ C/ CONDADO DE TREVIÑO;AV BURGOS;SAN LUIS, AVD Nº0 ESQ C/ CONDADO DE TREVIÑO AV BURGOS;443134,5;4481414;SI;129/150/158/;443025,11;4481206,52;-3.6721921;40.4795929
1728;;MARQUESINA MOD XXI 4-M STD;CHAMARTIN;PIO XII;AV;83;(1ª MARQUESINA);PZA DEL PERU;PIO XII, AVD Nº83 (1ª MARQUESINA) PZA DEL PERU;442982,2;4480510,6;SI;REFUGIO;442872,8;4480303,12;-3.6739075;40.4714442
2026;;MARQUESINA MOD XXI 4-M STD;CIUDAD LINEAL;LOPEZ DE HOYOS;CALLE;370;ESQ C/ ARTURO SORIA;PZA STOS.HUMOSA;LOPEZ DE HOYOS, CALLE Nº370 ESQ C/ ARTURO SORIA PZA STOS.HUMOSA;444182,6;4479186,6;SI;9/72/73/N2/N3/;444073,19;4478979,09;-3.6596312;40.4595984
5363;;MARQUESINA MOD XXI 4-M STD;FUENCARRAL;ARZOBISPO MORCILLO;CALLE;0;DESP C/ PEDRO RICO (2ª MARQ);Pº CASTELLANA;ARZOBISPO MORCILLO, CALLE Nº0 DESP C/ PEDRO RICO (2ª MARQ) Pº CASTELLANA;441725,1;4481453,3;SI;67/124/134/135/N24/;441615,71;4481245,83;-3.6888227;40.4798491
477;;MARQUESINA MOD XXI 5-M STD;HORTALEZA;EMIGRANTES;CALLE;14;-;GTA MAR CRISTAL;EMIGRANTES, CALLE Nº14 - GTA MAR CRISTAL;446112,7;4480034,6;SI;112/120/153/;446003,29;4479827,07;-3.6369401;40.4673651
1171;;MARQUESINA MOD XXI 5-M STD;ARGANZUELA;DELICIAS;Pº;139;DESP. PLZ. LEGAZPI;GTA. CARLOS V;DELICIAS, Pº Nº139 DESP. PLZ. LEGAZPI GTA. CARLOS V;441143;4471749,4;SI;19/;441033,58;4471541,92;-3.6947898;40.3923907
2173;;MARQUESINA MOD XXI 4-M STD;RETIRO;ALFONSO XII;CALLE;0;FTE Nº 22;PUERTA ALCALA;ALFONSO XII, CALLE Nº0 FTE Nº 22 PUERTA ALCALA;441669,8;4474422;SI;19/;441560,38;4474214,52;-3.6888285;40.416504
268;;MARQUESINA MOD XXI 5-M STD;CHAMARTIN;LOPEZ DE HOYOS;CALLE;69;-;C/ MARIA DE MOLINA;LOPEZ DE HOYOS, CALLE Nº69 - C/ MARIA DE MOLINA;442840,4;4477395,7;SI;9/73/N2/;442730,99;4477188,21;-3.6752993;40.4433739
3955;;MARQUESINA MOD XXI 4-M STD;VILLA DE VALLECAS;SUERTES (DE LAS);AV;0;DESP. C/ PEÑARANDA;C/ ANTONIO GADES;SUERTES (DE LAS), AV Nº0 DESP. C/ PEÑARANDA C/ ANTONIO GADES;448575,9;4469295,6;SI;142/;448466,42;4469088,01;-3.6070167;40.3707772
125;;MARQUESINA MOD XXI 5-M STD;CHAMARTIN;BURGOS;AV;0;FTE Nº 30;DUQUE PASTRANA;BURGOS, AV. Nº0 FTE Nº 30 DUQUE PASTRANA;442831,3;4481404,4;SI;129/150/174/;442721,91;4481196,92;-3.6757681;40.4794856
1589;;MARQUESINA MOD XXI 5-M STD;MONCLOA-ARAVACA;DR. J.J. LOPEZ IBOR;CALLE;0;FTE Nº 15;DR. RAMON CASTRO;DR. J.J. LOPEZ IBOR, CALLE Nº0 FTE Nº 15  DR. RAMON CASTRO;438562,6;4480357,9;SI;64/;438453,23;4480150,47;-3.7260249;40.4697534
1261;;MARQUESINA MOD XXI 5-M STD;MORATALAZ;VINATEROS;Cº;0;ESQ. ARROYO DE LA MEDIA LEGUA;C/ DR. ESQUERDO;VINATEROS, CAMINO Nº0 ESQ. ARROYO DE LA MEDIA LEGUA C/ DR. ESQUERDO;444432,6;4473768,5;SI;30/32/N8/;444323,17;4473560,98;-3.6562083;40.410806
3850;;MARQUESINA MOD XXI 4-M STD;VILLA DE VALLECAS;ENSANCHE DE VALLECAS;AV;0;ANT AV PEÑARANDA DE BRACAMONTE;AV VILLA DE VALLECAS;ENSANCHE DE VALLECAS, AV Nº0 ANTES AV PEÑARANDA DE BRACAMONTE AV VILLA DE VALLECAS;448406,8;4469059,7;SI;145/;448297,32;4468852,11;-3.6089893;40.3686416
1374;;MARQUESINA MOD XXI 5-M STD;FUENCARRAL;NARCIS MONTURIOL;CALLE;22;ESQ C/SANGENJO;C/SANGENJO;NARCIS MONTURIOL, CALLE Nº22 ESQ C/SANGENJO C/SANGENJO;440760,3;4482026,8;SI;67/83/;440650,92;4481819,35;-3.7002583;40.4849472
3975;;MARQUESINA MOD XXI 4-M STD;VILLA DE VALLECAS;GAVIA (DE LA);AV;0;ANT DE AV DE LAS SUERTES;AV ENSANCHE VALLECAS;GAVIA (DE LA), AV. Nº0 ANTES DE AV DE LAS SUERTES AV ENSANCHE VALLECAS;448204,1;4469617,6;SI;145/;448094,62;4469410,02;-3.6114221;40.3736551
3507;;MARQUESINA MOD XXI 5-M STD;SAN BLAS;ALCALA;CALLE;0;FTE Nº 526-JTO PARQUE SUANZES;PUERTA DEL SOL;ALCALA, CALLE Nº0 FTE Nº 526-JTO PARQUE SUANZES PUERTA DEL SOL;447475,1;4477283,7;SI;77/;447365,67;4477076,14;-3.6206424;40.4426706
1199;;MARQUESINA MOD XXI 5-M STD;CIUDAD LINEAL;CIUDAD LINEAL;PZA;0;ESQ C/ ARTURO SORIA A 10 MTS 1º ISLETA;C/ ALCALA;CIUDAD LINEAL, PZA. Nº0 ESQ C/ ARTURO SORIA A 10 MTS 1º ISLETA C/ ALCALA;445946,6;4476772,5;SI;4/;445837,17;4476564,96;-3.6386212;40.4379675
1777;;MARQUESINA MOD XXI 4-M STD;FUENCARRAL;GINZO DE LIMIA;CALLE;0;ESQ. AV EL FERROL;AV. ASTURIAS;GINZO DE LIMIA, CALLE Nº0 ESQ. AV. EL FERROL AV. ASTURIAS;440553,3;4480846,6;SI;147/N23/;440443,92;4480639,15;-3.7025896;40.4743007
5403;16883;MARQUESINA MOD XXI 5-M STD;HORTALEZA;ALCALDE CONDE DE MAYALDE;AV;0;ANT AV MANOTERAS;C/ ARTURO SORIA;ALCALDE CONDE DE MAYALDE, AV. Nº0 ANTES AV MANOTERAS C/ ARTURO SORIA;444378,6;4482330,9;SI;174/152B/153B/;444269,21;4482123,4;-3.6575957;40.487937
2662;6552;MARQUESINA MOD XXI 4-M STD;FUENCARRAL;LLANO CASTELLANO;AV;0;FTE. C/ FRANCISCO SANCHA;AV.NTRA SRA VALVERDE;LLANO CASTELLANO, AV Nº0 FTE. C/ FRANCISCO SANCHA AV.NTRA SRA VALVERDE;442142,1;4482074,2;SI;66/124/137/S.E/154/;442032,71;4481866,73;-3.68396;40.4854717
5658;;MARQUESINA MOD XXI 4-M STD;HORTALEZA;MANOTERAS;AV;0;FTE NAVE 58;Cº FUENTE DE LA MORA;MANOTERAS, AV Nº0 FTE NAVE 58 Cº FUENTE DE LA MORA;443491,5625;4482348,5;SI;150/;443382,17;4482141,01;-3.6680632;40.4880356
825;;MARQUESINA MOD XXI 4-M STD;RETIRO;ESTRELLA POLAR;CALLE;13;ESQ PEZ AUSTRAL;DR.ESQUERDO;ESTRELLA POLAR, CALLE Nº13 (2ª MAR) ESQ PEZ AUSTRAL DR.ESQUERDO;443648,7;4473819,8;SI;20/30/32/N8/;443539,27;4473612,29;-3.6654513;40.4112154
1012;;MARQUESINA MOD XXI 5-M REDUCIDA ;PUENTE VALLECAS;ALBUFERA;AV;0;ESQ C/ PIO FELIPE 200 MTS;CDAD. BARCELONA;ALBUFERA, AV Nº0 ESQ C/ PIO FELIPE 200 MTS CDAD. BARCELONA;444812,5;4471612;SI;58/103/143/;444703,06;4471404,47;-3.6515439;40.3914042
2570;;MARQUESINA MOD XXI 4-M STD;PUENTE VALLECAS;MARTINEZ DE LA RIVA;CALLE;143;ESQ C/ DILIGENCIA;AV ALBUFERA;MARTINEZ DE LA RIVA, CALLE Nº143 ESQ C/ DILIGENCIA AV ALBUFERA;443797,9;4470722,5;SI;57/144/;443688,46;4470514,99;-3.6634191;40.3833233
695;;MARQUESINA MOD XXI 5-M ESTRECHA ;CIUDAD LINEAL;BADAJOZ;AV;0;FTE  Nº 12;M-30;BADAJOZ, AV Nº0 FTE  Nº 12 M-30;444442,4;4477118,8;SI;53/122/N3/;444332,98;4476911,28;-3.656386;40.440988
709;;MARQUESINA MOD XXI 5-M STD;SALAMANCA;BRISTOL;AV;31;PROX. PUENTE DE LA PAZ;PZA. VENECIA;BRISTOL, AV. Nº31 PROX. PUENTE DE LA PAZ PZA. VENECIA;444008;4477113,9;SI;53/122/;443898,58;4476906,39;-3.6615074;40.4409147
2658;10543;MARQUESINA MOD XXI 5-M ESTRECHA ;CHAMARTIN;MAURICIO LEGENDRE;CALLE;0;ESQ C/ MANUEL CALDEIRO;PZA CASTILLA;MAURICIO LEGENDRE, CALLE Nº0 ESQ C/ MANUEL CALDEIRO PZA CASTILLA;442104,8;4481085,4;SI;66/S.E/154/;441995,41;4480877,93;-3.6843096;40.4765615
5523;9061;MARQUESINA MOD XXI 5-M STD;FUENCARRAL;CARDENAL HERRERA ORIA;AV;245;ESQ C/ ISLA DE AROSA;AV LLANOS CASTELLANO;CARDENAL HERRERA ORIA, AV. Nº245 ESQ C/ ISLA DE AROSA AV LLANOS CASTELLANO;439039,3;4481639,6;SI;49/815/;438929,93;4481432,17;-3.7205254;40.4813346
